stop_id;stop_name;latitude;longitude;wheelchair_boarding
1;Baselga Del Bondone;46.078354;11.047183;2
2;Baselga Del Bondone;46.078528;11.047586;1
3;Belvedere;46.044409;11.105369;0
4;Lamar Ponte Avisio;46.134568;11.111001;1
5;Sp 85 Bivio Sopramonte;46.085069;11.069564;2
7;Maso Bolleri;46.102457;11.124144;2
8;Maso Bolleri;46.102269;11.123991;2
9;Borino;46.067127;11.165537;1
10;Cadine Strada Gardesana;46.088578;11.065061;1
11;Cadine Strada Gardesana;46.088767;11.064526;1
12;Canova Paludi;46.099273;11.109269;1
13;"Gardolo ""Materna Paludi""";46.103917;11.108166;2
15;Asiago S.Bartolameo;46.047706;11.137591;1
17;"Cognola ""Toresela""";46.07889;11.153522;2
18;"Cognola ""Toresela""";46.078916;11.154062;2
19;Cognola Bivio Civezzano;46.080507;11.158307;2
20;Cognola Bivio Civezzano;46.080506;11.158409;2
21;"Cognola ""Centro Civico""";46.07644;11.141608;1
22;Cognola Grezoni;46.075937;11.146884;2
23;Cognola Grezoni;46.075967;11.14658;2
24;San Vito;46.075378;11.139504;1
25;Cognola S.Vito;46.075681;11.14077;2
26;Cognola S.Vito;46.075653;11.141776;2
27;San Vito;46.075399;11.13889;1
28;"Cognola ""Scuole""";46.075713;11.144004;2
29;"Cognola ""Scuole""";46.075819;11.144105;2
30;"Cognola Alla Veduta ""Roza""";46.077643;11.151166;1
31;"Cognola Alla Veduta ""Roza""";46.078022;11.151578;2
32;"Brescia ""Villa Salvotti""";46.076115;11.101057;2
37;Degli Alpini Oberziner;46.079109;11.118075;2
38;Cortesano;46.124661;11.133726;0
39;Vigo Meano Alle Gorghe;46.129695;11.134602;1
40;Vigo Meano Alle Gorghe;46.129572;11.134665;2
43;Forte Bus De Vela;46.085345;11.069798;0
46;"Gabbiolo ""Campo Sportivo""";46.055301;11.14899;1
47;"Gabbiolo ""Campo Sportivo""";46.055279;11.148843;1
48;Sp 76 Carpenedi;46.117667;11.110047;2
49;Sp 76 Carpenedi;46.117278;11.108621;2
50;Gardolo S.Anna;46.111157;11.109534;1
51;Gardolo S.Anna;46.111087;11.109494;1
52;Gardolo P.Le Neufahrn Sud;46.106607;11.111622;1
53;Gardolo P.Le Neufahrn Nord;46.106673;11.11158;1
54;Gardolo Piazza;46.108364;11.111681;1
55;Gardolo Piazza;46.108465;11.111514;2
56;Canova Aichner;46.101923;11.103255;2
57;Canova Via Della Canova;46.100323;11.106659;1
58;Gardolo Don Milani 8 Marzo;46.103947;11.117561;2
59;"Gardolo D.Milani ""Piscina""";46.10671;11.114353;2
60;"Gardolo D.Milani ""Piscina""";46.106764;11.114361;2
61;Gardolo Don Milani 8 Marzo;46.104154;11.117338;2
62;Gardolo S.Anna Carpenedi;46.113334;11.107735;1
63;Gardolo S.Anna Carpenedi;46.113375;11.107612;1
64;Gardolo Svincolo Ss.12;46.106196;11.109014;1
65;Gazzadina Strada Vecchia;46.13011;11.126402;2
66;Gazzadina Al Pontat;46.128896;11.128728;2
67;Gazzadina Al Pontat;46.128751;11.129085;2
68;Gazzadina Strada Vecchia;46.130171;11.126098;2
69;Grotta Piazza;46.045775;11.151173;2
70;Grotta Bindesi;46.043306;11.151756;2
71;Grotta Bindesi;46.043679;11.151494;2
72;"Ss 12 ""Zona Ind.Le Ftm""";46.119198;11.106145;2
73;"Lamar ""Ftm""";46.125847;11.107861;2
74;"Lamar ""Ftm""";46.125967;11.107596;2
75;"Lamar ""Sottostazione Enel""";46.129144;11.109752;2
76;Largo Sauro;46.074753;11.125004;0
77;Lavis Nazionale;46.13858;11.109069;2
78;Lavis Piazza Caduti;46.138061;11.115898;2
79;"Lavis ""Municipio""";46.139289;11.112161;2
80;Lavis Rosmini Segantini;46.142225;11.108496;1
85;Centochiavi Dalla Fior;46.094565;11.120643;2
86;Centochiavi Chiocchetti;46.093919;11.120723;2
87;"Melta ""Case Itea""";46.102356;11.118127;1
88;Parco di Melta;46.097301;11.119758;0
89;Melta Centro;46.099084;11.119185;2
90;Melta Centro;46.100097;11.118761;1
91;Parco di Melta;46.097222;11.119861;0
92;"Bettini ""Madonna Bianca""";46.04238;11.132874;2
93;"Stella ""S.Gaetano""";46.036419;11.13043;2
94;"Ss 12 ""Casteller""";46.025382;11.132726;2
95;"Ss 12 ""Casteller""";46.025655;11.132788;2
96;"Madonna Bianca ""S.Gaetano""";46.037978;11.13066;1
97;Stella Marighetto;46.03424;11.131449;1
98;"Madonna Bianca ""Man""";46.040233;11.13044;2
99;"Ss 12 ""Le Caverne""";46.031037;11.132709;2
100;"Ss 12 ""Le Caverne""";46.030059;11.132908;1
101;Martignano Formigheta;46.089145;11.133132;1
102;Martignano Formigheta;46.088977;11.133177;1
103;"Martignano ""Chiesa""";46.088719;11.130593;2
104;"Sp 131 ""Maso Pradiscola""";46.083248;11.135662;2
105;"Sp 131 ""Maso Pradiscola""";46.083257;11.135788;1
106;Martignano P.Zza Menghin;46.090133;11.131586;2
107;Martignano P.Zza Menghin;46.090206;11.131471;2
108;Martignano Piazza Canopi;46.089258;11.130976;1
109;"Sp 131 ""Res. Silvana""";46.09764;11.126986;2
110;"Sp 131 ""Res. Silvana""";46.097687;11.12683;2
111;Martignano Ai Bolleri;46.094528;11.130103;2
112;Martignano Ai Bolleri;46.094843;11.129425;2
113;"Sopramonte ""Maso Banal""";46.069001;11.063551;2
115;Sp 131 Al Maso Specchio;46.10449;11.123519;2
116;Sp 131 Al Maso Specchio;46.104411;11.123396;2
117;"Ravina ""Maso Stella""";46.032327;11.112713;2
118;"Ravina ""Maso Stella""";46.032559;11.112917;2
119;Mattarello Piazza Perini;46.00691;11.128386;2
120;Mattarello Via Nazionale;46.012398;11.1306;1
121;Mattarello Via Nazionale;46.011656;11.130383;2
122;Mattarello Pomeranos;46.013587;11.131547;1
123;"Mattarello ""Ronchi""";46.017229;11.132453;2
124;"Mattarello ""Ronchi""";46.017316;11.132591;2
125;Mattarello S.Leonardo;46.006539;11.127593;2
127;Mattarello Catoni;46.009422;11.128968;1
128;Mattarello Rio Stolzano;46.002959;11.126782;2
129;Meano Bivio S.Lazzaro;46.128153;11.1152;2
130;Meano Bivio S.Lazzaro;46.127618;11.115305;2
131;"Sp 76 ""Piac""";46.126807;11.114628;1
133;"Sp 76 ""Maregioli""";46.130566;11.121651;2
134;"Sp 76 ""Maregioli""";46.130305;11.121329;1
135;"Meano ""Campo Sportivo""";46.128287;11.120321;1
136;"Meano ""Campo Sportivo""";46.128357;11.119865;1
137;"Meano ""Cimitero""";46.125734;11.118399;1
138;"Meano ""Cimitero""";46.125503;11.118357;1
139;"Sp 76 ""Via Rossa""";46.119793;11.111463;2
140;"Sp 76 ""Via Rossa""";46.11965;11.111323;2
141;Meano Piazza Dell'assunta;46.122693;11.116859;2
142;Meano Portoni;46.123508;11.116937;2
143;Sp 76 Dos di Lamar;46.124991;11.113511;2
144;Sp 76 Dos di Lamar;46.124688;11.112827;1
145;"Mesiano ""Fac. Ingegneria""";46.067111;11.139552;1
146;"Mesiano ""Fac. Ingegneria""";46.067201;11.139594;1
147;"Mesiano ""Stazione Fs""";46.064922;11.141795;1
148;"Mesiano ""Stazione Fs""";46.065054;11.141743;1
149;Povo Valoni;46.065426;11.146084;1
150;Povo Valoni;46.065751;11.146343;1
151;Montevaccino;46.108248;11.14267;0
152;Montevaccino di Sotto;46.109413;11.140128;2
153;Montevaccino di Sotto;46.109498;11.140077;2
154;"Sp 131 ""Paganin""";46.106369;11.137467;2
155;"Sp 131 ""Paganin""";46.106393;11.137553;2
156;"M.Vaccino ""Maso Librar""";46.11041;11.138496;2
157;"M.Vaccino ""Maso Librar""";46.110514;11.138462;2
158;"Ss 45 ""Montevideo""";46.080315;11.098555;2
159;Villazzano Valnigra;46.052083;11.146588;1
160;Villazzano Valnigra;46.052091;11.146369;1
161;Oltrecastello;46.072734;11.161992;0
162;F.Lli Fontana Gen. Cantore;46.076884;11.118989;1
163;"Piazza Dante ""Palazzo Pat""";46.072301;11.120437;1
165;Piazza di Fiera;46.065117;11.123289;0
166;S.Francesco Porta Nuova;46.06689;11.126409;1
167;Piazza Vicenza;46.062096;11.132883;0
168;Piazza Vicenza;46.062261;11.132819;0
171;"Brescia ""Piedicastello""";46.070815;11.113433;1
172;"Brescia ""Piedicastello""";46.070531;11.111447;1
173;Tangenziale Ovest Pezcoller;46.047882;11.11346;2
174;Ponte Lodovico;46.069376;11.138945;0
175;Ponte Lodovico;46.069514;11.140184;0
176;"Venezia ""Port'aquila""";46.069863;11.12824;2
177;"Cervara ""Port'aquila""";46.070192;11.128072;2
178;"Cervara ""Port'aquila""";46.070054;11.12791;1
179;Spré Pinara;46.06749;11.161268;1
180;Spré Pinara;46.067189;11.160763;1
181;"Povo ""Casa di Riposo""";46.065739;11.159706;1
182;"Povo ""Casa di Riposo""";46.065543;11.159557;1
183;"Povo ""Centro Civico""";46.06411;11.151992;1
184;"Povo ""Centro Civico""";46.06387;11.151952;2
185;Povo S.Agata;46.066341;11.156734;1
186;Povo Piazza Manci;46.065879;11.154677;1
187;Povo Piazza Manci;46.065939;11.154528;2
188;"Povo ""Fac. Scienze""";46.063156;11.150091;1
189;"Povo ""Fac. Scienze""";46.063282;11.150174;1
190;"Povo ""Polo Sociale""";46.06546;11.158013;2
191;"Povo ""Polo Sociale""";46.065689;11.157889;1
192;Ravina Masere;46.039047;11.111615;2
193;Ravina Masere;46.039286;11.112482;1
194;"Ravina ""Case Itea""";46.037329;11.114055;1
195;"Ravina ""Case Itea""";46.037956;11.114081;2
196;Ravina Chiesa;46.03773;11.107763;2
197;Ravina Piazza;46.038007;11.108836;1
198;Ravina Per Belvedere;46.04147;11.106068;2
199;Ravina Per Belvedere;46.040947;11.106338;1
200;Ravina Del Ponte;46.04289;11.111775;2
201;Ravina Del Ponte;46.041193;11.113139;2
202;"Piazza Dante ""Pal. Regione""";46.071751;11.1214;1
203;Romagnano Nord;46.020118;11.110866;2
204;Romagnano Nord;46.020034;11.110896;2
205;Romagnano Fontanelle;46.015241;11.107137;2
206;Romagnano Fontanelle;46.014549;11.106708;2
207;Romagnano 7 Fontane;46.014708;11.105053;2
208;Romagnano Piazza Condini;46.017727;11.10587;1
209;Romagnano Sud;46.013013;11.105542;2
210;Romagnano Sud;46.01213;11.104968;2
211;Romagnano Rimoni;46.016805;11.108328;1
212;Romagnano Rimoni;46.016465;11.108234;1
213;Roncafort;46.101226;11.101583;0
214;"Ss 12 ""Zona Ind.Le Ftm""";46.120375;11.105848;2
215;Povo Salé;46.062025;11.151318;1
216;Povo Salé;46.062005;11.150887;2
217;"Verona ""S.Bartolameo""";46.050654;11.130531;1
218;"Verona ""S.Bartolameo""";46.051053;11.130406;1
219;San Donà;46.07157;11.138357;1
220;"San Donà ""Chiesa""";46.072151;11.138386;2
222;San Donà;46.070882;11.139489;2
223;Lamar Sponda Trentina;46.134482;11.111548;1
224;San Lazzaro Ponte Avisio;46.137891;11.118434;1
226;San Rocco Torricelle;46.038494;11.145576;2
227;San Rocco Piazza;46.03626;11.146204;1
228;Piazza Madonna Delle Laste;46.074105;11.135279;0
229;Sopramonte Piazza Oveno;46.071342;11.059187;2
230;Sopramonte Bivio Baselga;46.07555;11.058451;2
231;Sopramonte Bivio Baselga;46.075587;11.058645;2
232;"Sopramonte ""Valle""";46.075888;11.055913;2
233;"Sopramonte ""Valle""";46.075948;11.05575;2
234;"Sopramonte ""Novai""";46.067712;11.061514;1
235;Sopramonte Piazza Oveno;46.071176;11.059527;2
236;"Sopramonte ""Bunaga""";46.069285;11.05707;1
237;"Sopramonte ""Bunaga""";46.069969;11.057969;1
238;Spini di Gardolo;46.121625;11.090102;0
239;Spini Linz;46.118514;11.096121;2
240;Spini Linz;46.118533;11.096514;2
241;Spini Monaco;46.11874;11.092667;2
242;Spini Monaco;46.118457;11.092762;2
243;Spré S.Lucia;46.06941;11.161625;2
244;Spré S.Lucia;46.069213;11.161184;2
245;"Sp 85 ""Soraval""";46.083412;11.064273;1
246;"Sp 85 ""Soraval""";46.083174;11.064109;2
247;"Piazza Dante ""Stazione Fs""";46.071756;11.119511;1
248;Tavernaro Centro;46.081409;11.154945;2
249;Tavernaro Centro;46.081506;11.155013;1
250;"Tavernaro ""Salet""";46.081825;11.157904;1
251;"Tavernaro ""Salet""";46.081977;11.158399;1
252;"Tavernaro ""Villa Clementi""";46.080892;11.157486;2
253;"Tavernaro ""Villa Clementi""";46.081286;11.156045;2
255;Vela Alla Scala;46.078838;11.103643;1
256;Vela Alla Scala;46.079042;11.10342;1
257;Gardolo 4 Nov. Canova;46.098824;11.112888;1
258;"Gardolo 4 Nov. ""Piscina""";46.104302;11.112908;1
259;Gardolo 4 Nov. Soprasasso;46.106596;11.112223;2
260;Adamello Gorizia;46.059886;11.132267;2
261;"Gardolo ""Stazione Ftm""";46.107233;11.103845;2
262;"M. Rossi ""Stella D.Mattino""";46.107391;11.101207;1
263;"M. Rossi ""Stella D.Mattino""";46.107354;11.100457;1
264;Al Desert Muredei;46.051317;11.117311;2
265;Al Desert Muredei;46.050958;11.117076;1
266;Al Desert Ragazzi Del '99;46.0469;11.115712;1
267;Al Desert Ragazzi Del '99;46.047131;11.115704;1
269;"Apuleio ""Case Degasperi""";46.073543;11.115546;1
270;"Apuleio ""Ponte S.Giorgio""";46.076349;11.114967;2
271;"Asiago ""Cernidor""";46.050295;11.13724;2
272;"Asiago ""Bellevue""";46.053211;11.136383;2
273;"Asiago ""Bellevue""";46.053087;11.136438;2
274;"Asiago ""Cernidor""";46.049614;11.137304;2
275;Castello Buonconsiglio;46.070388;11.126826;0
276;"Sanzio ""Castello""";46.071903;11.126008;1
277;"Barbacovi ""Itg Pozzo""";46.064413;11.12985;1
278;Ss 47 Muralta;46.077053;11.131799;2
279;Martignano Capitel;46.082249;11.127221;2
280;Martignano Capitel;46.08168;11.126846;1
281;"Bettini ""Nido Mad. Bianca""";46.040445;11.135356;1
282;"Bettini ""Nido Mad. Bianca""";46.040111;11.135449;1
283;Bezzi Filzi;46.058483;11.119231;1
284;"Bolghera ""S.Antonio""";46.058168;11.1312;1
285;"Lamar ""Sottostazione Enel""";46.131117;11.110231;2
286;"Ss 12 ""Pioppeto""";46.108373;11.108551;1
287;Ss 12 Bivio Meano;46.116068;11.106212;2
288;Ss 12 Canova;46.098968;11.111801;1
289;"Ss 12 ""Paludi""";46.102642;11.110517;2
290;Ss 12 Canova;46.100402;11.111543;1
291;"Brennero ""Bren Center""";46.091515;11.115307;1
292;"Brennero ""Bren Center""";46.091499;11.115601;1
293;Brennero Marconi;46.083031;11.120416;1
294;Brennero Malvasia;46.077968;11.123274;1
295;Brennero Marconi;46.083704;11.119817;1
296;"Brennero ""Magnete""";46.089309;11.116571;1
297;"Brennero ""Ex Scalo Filzi""";46.080071;11.122109;1
298;"Brennero ""Ex Scalo Filzi""";46.079302;11.12238;1
300;"Brennero ""Tridente""";46.08648;11.11843;1
301;"Brigata Acqui ""Itc Tambosi""";46.065447;11.128453;1
303;Roncafort Bettine;46.097554;11.102563;2
304;Caneppele Goio;46.094442;11.105189;2
305;Caneppele Goio;46.094446;11.10508;2
306;Cervara Cereria;46.074217;11.128394;2
307;Cervara Cereria;46.074148;11.128427;2
308;Martignano Cesarini;46.086329;11.129247;2
309;Martignano Cesarini;46.087089;11.129618;2
310;Conci De Riccabona;46.039514;11.140832;2
311;Conci De Riccabona;46.039362;11.140403;1
312;Conci Ferrovia;46.039317;11.137726;2
313;Conci Ferrovia;46.039824;11.137235;2
314;Degasperi Anna Frank;46.050201;11.124067;1
315;Degasperi Anna Frank;46.051157;11.122932;1
316;"Degasperi ""Palazzo Stella""";46.0431;11.129397;1
317;"Degasperi ""Palazzo Stella""";46.0429;11.129774;1
318;"Degasperi ""Big Center""";46.044844;11.128022;1
319;"Degasperi ""Big Center""";46.045018;11.128138;2
320;Degasperi La Clarina;46.048007;11.126793;1
321;Degasperi La Clarina;46.04867;11.126205;1
322;"Dei Mille ""Villa Igea""";46.062502;11.127822;1
323;"Dei Mille ""Villa Igea""";46.062524;11.127957;1
324;"Villazzano ""Villa De Mersi""";46.048201;11.143371;1
325;Martignano Costiole;46.092338;11.132591;1
326;Martignano Costiole;46.092456;11.1325;2
327;Martignano Castori;46.083464;11.127864;2
328;Martignano Castori;46.083438;11.127722;1
329;Dos Trento Mariano;46.074583;11.11342;1
330;Dos Trento Apuleio;46.073035;11.114821;1
331;Ponte S.Giorgio;46.077012;11.114109;0
333;F.Lli Fontana Gen. Cantore;46.077014;11.118701;1
334;F.Lli Fontana Oberziner;46.077447;11.11678;1
335;Fermi La Clarina;46.048694;11.129102;1
338;"Fogazzaro ""Piscina""";46.056256;11.130446;1
339;"Fogazzaro ""Piscina""";46.055999;11.129676;1
340;Ss 349 Pozzata;46.03951;11.144092;2
342;"Gandhi ""Parco Anna Frank""";46.051768;11.124369;1
344;"Gerola ""Ospedale S.Chiara""";46.058333;11.133082;1
345;Ghiaie Monte Baldo;46.056236;11.11612;2
346;"Ghiaie ""Giardinerie""";46.05317;11.116794;1
347;"Giovanelli ""Osp. S.Camillo""";46.0655;11.131873;1
348;Giusti Pascoli;46.060282;11.118954;1
349;"Giusti ""Arcivescovile""";46.061521;11.119038;1
350;"Gocciadoro ""Arcate""";46.054869;11.133747;1
351;"Gocciadoro ""Poliambulatori""";46.055632;11.132219;1
352;Gorizia Adamello;46.059878;11.131346;1
353;"Gramsci ""Materna La Clarina""";46.053331;11.125535;1
354;Gramsci Einaudi;46.052639;11.128171;2
355;Grazioli Brigata Acqui;46.067114;11.128745;1
356;Guardini Gilli;46.091908;11.119067;1
357;Guardini Gilli;46.091364;11.119265;2
358;"Lunelli ""Aci""";46.092684;11.119846;1
360;"Maccani ""Rotatoria""";46.082769;11.114889;1
361;Maccani Commercio;46.091766;11.10749;1
362;Maccani Commercio;46.091669;11.107424;1
363;Maccani Campotrentino;46.085714;11.112535;1
364;Maccani Campotrentino;46.085455;11.112658;2
365;Maccani Abondi;46.080884;11.116571;1
366;Maccani Abondi;46.080857;11.116496;1
368;"Maccani ""Polizia Locale""";46.089845;11.109059;1
369;"Maccani ""Polizia Locale""";46.090707;11.10823;1
370;"Maccani ""Rotatoria""";46.082986;11.114802;1
371;"Maccani ""Ex Sloi""";46.087967;11.110639;1
372;"Maccani ""Ex Sloi""";46.087889;11.110606;1
374;Marconi Solteri;46.084415;11.121228;2
375;Marconi Solteri;46.084529;11.121727;1
376;Villazzano Marzola;46.046735;11.148768;2
377;Villazzano Marzola;46.046644;11.14899;2
378;Villazzano Giordano;46.050762;11.148486;2
379;Villazzano Giordano;46.050756;11.148399;2
380;Mattioli Vittorio Veneto;46.058788;11.122615;1
382;Menguzzato Al Casteller;46.038132;11.134411;2
383;"Menguzzato ""Centro Civico""";46.040399;11.131724;1
384;"Menguzzato ""Centro Civico""";46.04019;11.132068;1
385;Menguzzato Al Casteller;46.03806;11.134171;1
386;Milano A Prato;46.060778;11.127597;1
387;Milano A Prato;46.060738;11.127737;1
388;Missioni Africane;46.076647;11.128205;0
389;Quattro Strade;46.075498;11.128156;0
390;Quattro Strade;46.07627;11.128154;0
391;Missioni Africane;46.078522;11.12722;0
392;Monte Baldo Ghiaie;46.057187;11.115167;2
393;Muredei Prati;46.056933;11.118149;2
395;Muredei Benevoli;46.053262;11.118539;2
397;Oberziner Alpini;46.078725;11.11762;1
400;Pasubio Adamello;46.060039;11.133347;1
401;F.Lli Perini 3 Novembre;46.060865;11.124266;1
402;"Piave ""Parco S.Chiara""";46.064131;11.12761;2
403;Romagnosi Vannetti;46.072966;11.122675;1
404;"Rosmini ""Cimitero"" / Muse";46.064014;11.119486;1
405;"Rosmini ""Cimitero"" / Muse";46.063777;11.119653;1
406;Rosmini S.Maria Maggiore;46.067878;11.118839;1
407;Rosmini S.Maria Maggiore;46.068034;11.118702;1
408;"3 Nov. ""Centro S.Chiara""";46.062192;11.123797;1
409;"3 Nov. ""Centro S.Chiara""";46.062244;11.123946;1
410;S.Francesco Porta Nuova;46.066987;11.12623;1
412;S.Pio X Matteotti;46.056448;11.119846;1
413;S.Pio X Largo Prati;46.056778;11.119278;1
414;S.Pio X Benevoli;46.053943;11.120571;1
415;S.Pio X Benevoli;46.053836;11.120696;1
416;Sanseverino S.Nicolò;46.05237;11.112007;1
417;Sanseverino S.Nicolò;46.050945;11.111681;1
420;Segantini Centa;46.075533;11.122391;1
421;Segantini Dogana;46.074195;11.121494;1
422;"Solteri ""Piazzina""";46.085501;11.12256;1
423;"Solteri ""Piazzina""";46.085496;11.122474;2
424;Solteri Largaiolli;46.089979;11.120936;1
425;Solteri Largaiolli;46.090042;11.12082;1
426;"Solteri ""Nido La Trottola""";46.087949;11.121282;1
427;"Solteri ""Nido La Trottola""";46.087572;11.121396;1
428;Gardolo Soprasasso;46.105625;11.107433;2
429;Gardolo Soprasasso;46.105498;11.10728;1
430;"Gardolo ""Cimitero""";46.106424;11.105638;1
431;Parco Del Dos Trent;46.073335;11.107385;0
432;Parco Del Dos Trent;46.073141;11.107375;0
433;Brescia Divisioni Alpine;46.071043;11.109667;2
434;Brescia Divisioni Alpine;46.07096;11.109664;2
435;Vela S.Giorgio;46.07629;11.104958;2
436;Vela S.Giorgio;46.076104;11.105151;1
437;"Dos Trento ""Centro Sportivo""";46.075623;11.107078;2
438;"Dos Trento ""Centro Sportivo""";46.075279;11.107483;2
439;"Sp 90 ""Maso Prudenza""";46.028929;11.111593;2
440;"Sp 90 ""Maso Prudenza""";46.029257;11.111746;2
441;Maso Rossi Aichner;46.105192;11.100545;1
443;Torre Verde Galasso;46.070654;11.122776;2
444;Travai Al Nuoto / Muse;46.06455;11.120922;1
446;"Vittorio Veneto ""S.Giuseppe""";46.057759;11.119314;1
447;Vittorio Veneto Lorenzoni;46.058637;11.123793;1
448;Largo Prati;46.057498;11.117145;0
449;Largo Prati;46.057502;11.117642;0
450;Venezia Cave;46.06664;11.13153;2
451;Venezia Cave;46.066443;11.132573;2
452;"Venezia ""Corallo""";46.068584;11.136364;1
453;"Venezia ""Corallo""";46.069215;11.136423;1
454;Vicenza Montello;46.061688;11.135919;1
455;Vicenza Montello;46.061756;11.135814;1
456;"Zambra ""Ist. D'arte Vittoria""";46.092327;11.116446;1
457;Verona Fogazzaro;46.056393;11.128495;1
458;Verona Fogazzaro;46.05648;11.128573;1
459;"Verona ""Palazzo Stella""";46.043087;11.131261;1
460;Verona Menguzzato;46.042627;11.131436;2
461;"Verona ""Questura""";46.047729;11.131077;1
462;Verona Einaudi;46.052957;11.129723;1
463;Verona Einaudi;46.052827;11.129887;1
464;"Verona ""Questura""";46.047963;11.131182;2
466;"3 Nov. ""Ponte Cavalleggeri""";46.05926;11.126666;1
467;Vigo Meano Rio Papa;46.133407;11.132546;2
468;Vigo Meano Rio Papa;46.133614;11.13241;2
469;Vigo Meano Piazza Stainer;46.131433;11.134609;1
470;Vigo Meano Piazza Stainer;46.131968;11.134013;1
471;Gazzadina Al Molar;46.130653;11.130774;2
472;Gazzadina Al Molar;46.130483;11.130637;2
473;Villazzano Villa Belfonte;46.043566;11.149677;1
474;Villazzano Villa Belfonte;46.043555;11.149783;1
475;"Villazzano ""Villa Tambosi""";46.043932;11.140651;1
476;"Villazzano ""Villa Tambosi""";46.043827;11.140139;1
477;Villamontagna P.Predaroi;46.086121;11.160453;1
478;"Villamontagna ""Michei""";46.084235;11.16288;2
479;"Villamontagna ""Michei""";46.08452;11.163106;2
481;"Villazzano ""Chiesa""";46.049358;11.143947;2
484;Villazzano Piazza Nicolini;46.048996;11.14602;1
485;Villazzano Piazza Nicolini;46.049107;11.146087;1
486;Villazzano Banala;46.047437;11.142286;1
488;"Conci ""Villazzano 3""";46.041035;11.14068;1
490;Zell Marnighe;46.080233;11.138364;1
491;Zell Marnighe;46.080041;11.138755;1
492;"Spini ""Officine""";46.11841;11.100034;2
493;"Spini ""Officine""";46.118234;11.100622;2
494;"Spini ""Zona Ind.Le Ftm""";46.118168;11.103939;2
495;"Spini ""Zona Ind.Le Ftm""";46.118038;11.10365;2
496;Spini Klagenfurt;46.117775;11.094238;1
497;Spini Klagenfurt;46.117756;11.094421;1
524;"3 Nov. ""Ponte Cavalleggeri""";46.059396;11.126384;1
527;"Meano ""Centro Civico""";46.126579;11.11676;1
1278;Corso Bettini Liceo;45.896301;11.043306;1
1279;Corso Bettini Liceo;45.895162;11.043361;1
1280;"Corso Bettini ""Mart""";45.892943;11.043667;1
1281;"Corso Bettini ""Mart""";45.893097;11.043771;2
1282;Corso Rosmini Via Savioli;45.890979;11.038463;1
1283;Corso Rosmini Monumento;45.890893;11.042737;1
1284;Corso Rosmini Posta;45.890968;11.040933;1
1285;Corso Rosmini Via Savioli;45.890912;11.038264;1
1286;Corso Verona Ospedale;45.882264;11.040343;1
1287;Lizzanella Corso Verona;45.875615;11.034204;2
1289;Corso Verona Ospedale;45.881038;11.039613;2
1290;Via Vicenza Via Cartiera;45.887177;11.05054;2
1291;Via Vicenza Via Cartiera;45.887171;11.050971;2
1292;Chiusole;45.925517;11.05304;2
1293;Chiusole;45.925428;11.05349;2
1295;Costa Capolinea;45.884164;11.072955;2
1296;Sp.2 Loc. Beccache';45.882022;11.071445;2
1297;Marco Via Pinera;45.847951;11.011766;2
1298;Marco Centro;45.843919;11.008619;2
1299;Marco Chiesa;45.841814;11.007836;1
1300;Marco Via Alla Ghiffa;45.840134;11.009486;2
1301;Marco;45.83687;11.011181;0
1302;Marco Via Alla Ghiffa;45.8402;11.00955;2
1303;Marco Chiesa;45.841461;11.008369;2
1304;Marco Centro;45.843821;11.008624;1
1305;Marco Via Pinera;45.847456;11.011517;2
1307;Nogaredo Via Zuccate;45.912242;11.025615;2
1308;Nogaredo Via Zuccate;45.912297;11.025602;2
1309;"Nomi ""Casa di Riposo""";45.928012;11.076136;2
1310;Nomi Piazza Springa;45.928796;11.072447;2
1311;Piazzale Orsi Stazione Fs;45.890257;11.034246;1
1312;Stazione Fs;45.890549;11.033982;0
1313;Piazzale S.Giorgio Est;45.895494;11.029596;0
1314;Piazzale S.Giorgio Ovest;45.895553;11.028781;0
1315;Piazzale S.Maria Ospedale;45.883528;11.040645;1
1316;Piazzale S.Maria Ospedale;45.883611;11.04094;1
1318;Piazza Manifattura;45.883841;11.021149;0
1319;Piazza Manifattura;45.883941;11.0211;0
1322;Piazza Podestà;45.886579;11.045563;0
1324;Piazzo;45.92196;11.033338;1
1325;Piazzo;45.922086;11.033671;2
1326;Pomarolo Chiesa;45.926381;11.045389;2
1327;Pomarolo Chiesa;45.926411;11.045788;2
1328;Pomarolo Via Degasperi;45.926336;11.042267;2
1329;Pomarolo Via Degasperi;45.926273;11.04252;2
1331;S.Ilario Sav;45.908267;11.040545;2
1332;S.Ilario Via Monti;45.910928;11.041107;2
1333;S.Ilario Sav;45.9079;11.040546;2
1334;Sp.2 Loc. Beccache';45.882294;11.072418;2
1335;"Viale Dei Colli ""Distributore""";45.88741;11.059524;2
1337;"Viale Dei Colli ""Distributore""";45.887476;11.059522;2
1338;Sp.2 Fr. Campolongo;45.886965;11.063864;1
1339;Sp.2 Noriglio;45.884288;11.070321;2
1340;Sp.2 Noriglio;45.884322;11.07008;2
1341;Sp.2 Fr. Campolongo;45.886934;11.063942;1
1342;Noriglio Via Dei Cimbri;45.884634;11.069729;2
1343;Lizzana Cristo;45.8669;11.030821;2
1347;Lizzana Cristo;45.867194;11.030778;1
1348;Lizzana Scuole Medie;45.870122;11.031121;1
1349;Lizzana Scuole Medie;45.870153;11.031031;1
1350;Lizzanella Ss.12;45.875541;11.031728;2
1351;Lizzanella Ss.12;45.876134;11.032003;2
1357;Via Benacense Via Fiume;45.881902;11.038149;1
1358;Via Benacense Via Fiume;45.881987;11.038449;1
1359;Via Benacense Parco Ferrari;45.877968;11.033225;1
1360;Via Benacense Scuole Dante;45.879524;11.034866;1
1361;Via Benacense Scuole Dante;45.879687;11.035197;1
1362;Via Benacense Parco Ferrari;45.877967;11.033346;1
1363;Via Cavour Via Riva;45.88728;11.034509;1
1364;Via Cavour;45.887193;11.038491;0
1365;Via Cavour Via Riva;45.88726;11.034203;1
1366;Via Cavour;45.887107;11.038239;0
1367;Via Cesari Stazione Fs;45.89033;11.03564;2
1369;Via Dante Borgo S.Caterina;45.889667;11.040463;2
1370;Via Dante Mon. All'alpino;45.886799;11.040419;2
1371;Via Dante Mon. All'alpino;45.886264;11.040284;2
1372;Viale Dei Colli Sc. Alberghiera;45.891061;11.047352;2
1373;Viale Dei Colli Sc. Alberghiera;45.890999;11.047589;2
1374;Viale Dei Colli S.Biagio;45.890117;11.050075;2
1375;Viale Dei Colli S.Biagio;45.890249;11.050137;2
1376;Via Driopozzo Bivio Solatrix;45.899636;11.044399;2
1380;Via Giovannini;45.906976;11.043227;0
1381;Via Magazol Via Cimarosa;45.89984;11.039956;2
1383;"Via Manzoni ""Dolomiti En.""";45.893302;11.036155;2
1384;"Via Manzoni ""Dolomiti En.""";45.893257;11.036473;2
1385;Via Balista;45.894807;11.032744;0
1386;Via Balista;45.895135;11.032558;0
1388;Via Manzoni Via Paoli;45.892158;11.0394;1
1389;Via Paoli Piazza 25 Aprile;45.893125;11.040071;1
1391;Via Paoli;45.891405;11.040044;0
1392;Via Pasubio Via Unione;45.887436;11.024869;1
1393;Via Pasubio Viale Vittoria;45.887203;11.030676;1
1394;Via Pasubio Viale Vittoria;45.887291;11.030752;2
1395;Via Pasubio Via Unione;45.887527;11.024528;2
1397;Via A Prato;45.893472;11.03071;0
1398;Via Puccini Via Perosi;45.903744;11.04498;1
1399;Via Puccini Via Donizetti;45.90126;11.046191;2
1400;Via Pellico Brione;45.904405;11.042574;2
1401;Via Saibanti;45.888197;11.036753;0
1402;Via Saibanti;45.887981;11.036659;0
1404;Piazzale Orsi Ist. Veronesi;45.891409;11.03452;1
1405;Via Tiella;45.907639;11.043746;0
1408;Via Unione Scuole Degasperi;45.885193;11.023238;2
1409;Via Unione Scuole Degasperi;45.885611;11.023154;2
1410;"Via Zeni ""Meccatronica""";45.890456;11.032678;2
1411;"Via Zeni ""Meccatronica""";45.89097;11.03262;1
1412;Viale Trento Via Magazol;45.899565;11.042103;1
1413;Viale Trento Via Magazol;45.899753;11.04217;1
1414;Viale Trento Via Brione;45.901664;11.041509;1
1415;Viale Trento Via Brione;45.901469;11.041672;1
1416;Viale Trento Via Salvetti;45.906562;11.040032;2
1417;Viale Trento Via Salvetti;45.906461;11.040139;2
1418;Viale Vittoria Via Zotti;45.88536;11.025501;2
1419;Viale Vittoria Fucine;45.886322;11.028863;1
1420;Viale Vittoria Via Zotti;45.885258;11.025452;1
1421;Viale Vittoria Fucine;45.886323;11.029127;1
1422;"Ss.12 ""Rovercenter""";45.864467;11.029238;2
1424;Villa Lagarina Via Alpini;45.914525;11.034176;2
1425;Villa Lagarina Via Alpini;45.914791;11.033801;2
1426;Villa Lagarina Via Solari;45.917095;11.028849;1
1427;Villa Lagarina Via Solari;45.916967;11.028762;2
1429;Villa Lagarina V. Zandonai;45.912386;11.031423;2
1431;Via Craffonara;45.88661;11.034168;0
1433;Via Parteli;45.896415;11.037051;0
1434;Via Pasqui;45.899131;11.037382;0
1437;"Viale Caproni ""Sony""";45.865416;11.01079;2
1440;Viale Dell'industria;45.871673;11.020696;0
1442;"Viale Del Lavoro ""Aticarta""";45.866651;11.02347;2
1443;"Viale Del Lavoro ""Rovercenter""";45.863651;11.027037;2
1444;Via S.Maria;45.884706;11.04309;0
1446;Via Zotti Via Cevedale;45.885735;11.025638;1
1447;Via Zotti;45.886244;11.020845;0
1504;"Via Fornaci ""Texbond""";45.859884;11.005372;2
1685;Via Macello;45.894294;11.032821;0
2120;"Zambra ""Top Center""";46.091131;11.117806;1
2189;"Piazza Dante ""Dogana""";46.072531;11.119934;1
2213;Bivio Per Senter;45.881227;11.077484;0
2214;Bivio Per Senter;45.881368;11.077601;0
2215;Brancolino;45.902202;11.020328;2
2216;Brancolino;45.902262;11.020302;2
2217;Brancolino Sp.90;45.900676;11.02045;1
2218;Brancolino Sp.90;45.900782;11.020738;1
2219;Casa Del Falegname;45.885863;11.076374;0
2220;Casa Del Falegname;45.885592;11.076418;0
2221;Casa Nel Bosco;45.882463;11.076427;0
2222;Casa Nel Bosco;45.882368;11.076445;0
2223;Castellano Centro;45.923336;11.0078;2
2224;Cisterna;45.883095;11.086366;2
2225;Cisterna;45.88321;11.086375;2
2226;Cornale';45.881595;11.010857;2
2227;Cornale';45.8815;11.010617;2
2229;Folaso;45.887106;11.001157;2
2230;Folaso;45.887198;11.001276;2
2231;Isera Via Rosina;45.887495;11.010432;2
2232;Isera Via Rosina;45.887748;11.010732;2
2233;Isera Cimitero;45.888649;11.011896;2
2234;Isera Cimitero;45.888525;11.011727;2
2237;Lenzima;45.878365;10.992341;0
2238;Marano;45.89591;11.01556;2
2239;Marano;45.895781;11.015525;2
2240;Maso Mortal;45.882697;11.079603;2
2241;Maso Mortal;45.882929;11.079489;2
2242;Moietto;45.894924;11.085843;0
2244;Molina;45.85531;10.986379;2
2245;Mori Bar Centrale;45.851635;10.978754;2
2248;Mori Piazzale Kennedy;45.851649;10.979132;1
2249;Mori Via Don Sturzo;45.853242;10.970128;1
2253;Noarna;45.911054;11.012437;2
2254;Noarna;45.910819;11.012392;2
2255;Nogaredo Municipio;45.912024;11.022972;2
2256;Nogaredo Municipio;45.911972;11.02303;2
2257;Nogaredo Vignai;45.910757;11.019974;2
2259;Nogaredo Scuole Elementari;45.909122;11.022514;2
2260;Nogaredo Scuole Elementari;45.909039;11.022329;2
2261;Villa Lagarina Via Marconi;45.915541;11.027716;2
2262;Villa Lagarina Via Marconi;45.914882;11.027749;2
2265;Noriglio Cassa Rurale;45.883624;11.06918;2
2266;Noriglio Mon. Ai Caduti;45.88366;11.070394;2
2267;Patone;45.902576;11.000318;0
2268;Pedersano Capolinea;45.922601;11.020511;2
2271;Pedersano Centro;45.918031;11.019739;2
2272;Pedersano Centro;45.917944;11.019758;2
2273;Piazza Filzi Via Del Porto;45.884129;11.017931;1
2274;Ravazzone;45.85999;10.991196;2
2275;Mori Stazione Via Stazione;45.861992;11.000492;2
2276;Mori Stazione Via Stazione;45.861915;11.000478;2
2277;Reviano;45.891134;11.007297;2
2278;Reviano;45.891551;11.007123;2
2281;S.Ilario Iti;45.910898;11.041947;2
2282;S.Ilario Iti;45.909862;11.041587;2
2283;S.Ilario Via Stroperi;45.912522;11.043825;1
2284;S.Ilario Via Stroperi;45.912602;11.044046;1
2285;Sp.20 S.Sisinio;45.925111;11.021159;2
2286;Sp.20 Zisi;45.931011;11.022064;2
2287;Sp.20 Zisi;45.931519;11.022149;2
2288;Sp.20 S.Sisinio;45.925088;11.021076;2
2289;"Ss.240 ""Millennium Sud""";45.868636;11.014105;2
2291;"Ss.240 ""Millennium Sud""";45.868695;11.014031;2
2292;Ravazzone;45.858898;10.990652;2
2293;"Ss.240 ""Millennium Nord""";45.870196;11.016625;2
2294;"Ss.240 ""Millennium Nord""";45.870509;11.017269;2
2295;Saltaria;45.895289;11.067315;2
2296;Saltaria;45.895198;11.06739;2
2297;Sano;45.846311;10.95152;0
2298;Sasso;45.904083;11.013562;2
2299;Sasso;45.903968;11.013639;2
2300;Senter;45.877521;11.089343;0
2301;Tierno Via Cooperazione;45.84608;10.979238;1
2302;Tierno Via Battisti;45.84809;10.97817;2
2303;Tierno Via Terra Nera;45.848582;10.982899;1
2304;Toldi;45.897936;11.061771;0
2307;Via D.Chiesa;45.886218;11.019333;0
2309;Via Della Libertà;45.885111;11.017611;0
2310;Via Driopozzo Bivio Solatrix;45.898904;11.044437;2
2311;Via Fedrigotti Chiesa;45.884252;11.020443;2
2312;Noriglio Via Fontani;45.884407;11.06867;2
2318;Via Lagarina;45.910333;11.039896;0
2319;Via Magazol Viale Trento;45.89903;11.041963;1
2321;Via Lagarina;45.910851;11.03975;0
2322;Via Puccini Via Donizetti;45.901456;11.046258;1
2323;Via Puccini Via Perosi;45.904419;11.044624;1
2325;Noriglio Via Valteri;45.886164;11.065291;2
2329;Via Vicenza Via Asiago;45.885554;11.059487;2
2330;"Viale Caproni ""Chizzola""";45.868392;11.022253;2
2331;"Viale Del Lavoro ""Aticarta""";45.86612;11.024025;2
2332;Viale Dell'industria;45.871421;11.020859;0
2333;Villa Lagarina Via Magrè;45.917725;11.033251;1
2334;Villa Lagarina Via Magrè;45.917561;11.033477;1
2335;Villa Lagarina V.Segantini;45.916364;11.03423;2
2336;Villa Lagarina V.Segantini;45.916278;11.034103;1
2337;Volano Ss.12;45.917745;11.06344;2
2338;Volano Ss.12;45.917925;11.063894;2
2339;Volano Via Roma;45.917094;11.069844;1
2340;Volano Des Tor;45.917458;11.057496;2
2341;Volano Via Europa;45.91652;11.057146;2
2342;Zaffoni;45.89131;11.065349;2
2343;Zaffoni;45.891331;11.06585;2
2354;Via All'adige;45.888316;11.019061;0
2355;Pomarolo Via Rossaro;45.925699;11.047857;2
2356;Pomarolo Via Del Pionte;45.925151;11.048075;2
2359;Molini;45.91372;11.021093;2
2360;Lago di Cei Bellaria;45.957557;11.0323;2
2361;Lago di Cei;45.951116;11.02308;2
2362;Lago di Cei Albergo;45.948216;11.015907;2
2363;Sp.20 Maso Tiaf;45.936417;11.008581;2
2364;Sp.20 Bivio Per Bordala;45.930966;11.007169;2
2365;Castellano Centro;45.923288;11.007728;2
2367;Sp.20 Bivio Per Bordala;45.93097;11.007246;2
2368;Sp.20 Maso Tiaf;45.93586;11.008605;2
2369;Lago di Cei Capitello;45.947507;11.01499;2
2370;Lago di Cei;45.951215;11.023429;2
2372;Molini;45.91395;11.02124;2
2377;Sp 76 Bivio S.Lazzaro;46.129;11.115532;2
2380;"Trener ""3 Torri Pat""";46.095078;11.116914;2
2383;"Guardini ""Centochiavi""";46.092602;11.118549;1
2384;"Zambra ""Top Center""";46.091021;11.117999;2
2385;"Zambra ""Ist. D'arte Vittoria""";46.09251;11.116229;2
2386;"Meano ""Centro Civico""";46.12745;11.11658;1
2389;Centochiavi Lunelli;46.092571;11.120604;1
2391;Via Rovigo;45.880506;11.03807;0
2394;Piazza Guella;45.867289;11.03188;0
2395;Largo S.Floriano;45.866427;11.032708;0
2397;Via Cornacalda;45.866829;11.035088;0
2398;Via Della Cisterna;45.867868;11.034807;0
2404;Romagnano 7 Fontane;46.014251;11.104356;2
2405;Travai Piazza Fiera;46.064755;11.122318;1
2406;"Ghiaie ""Giardinerie""";46.052905;11.11704;1
2407;Ghiaie Monte Baldo;46.05639;11.116193;2
2408;Parcheggio Zuffo;46.074958;11.109709;0
2409;Cavalcavia S.Lorenzo;46.070362;11.119089;0
2410;Parcheggio Monte Baldo;46.057099;11.113649;0
2412;Piazzale A22;46.077321;11.111076;0
2418;"Ss 12 ""Pioppeto""";46.108607;11.108745;1
2419;Ss 12 S.Anna;46.112375;11.107453;1
2421;Via A Prato;45.893517;11.03078;0
2422;"Roncafort ""Asilo""";46.100975;11.101782;1
2423;Maso Rossi Aichner;46.105349;11.100544;1
2424;"S.Lorenzo ""Funivia""";46.070164;11.11674;2
2426;"S.Lorenzo ""Funivia""";46.070285;11.117276;1
2430;Sanseverino Monte Baldo;46.057726;11.112549;2
2435;"Brescia ""Ca Dei Gai""";46.07348;11.105332;2
2437;Ravina Della Croce;46.040932;11.110995;1
2438;Ss 12 Talvera;46.103414;11.110516;1
2446;"Ghiaie ""Zona Ind.Le Ftm""";46.119112;11.105325;2
2447;Ghiaie Salisburgo;46.123098;11.103287;2
2448;"Ghiaie ""Sc. Materna""";46.124688;11.099827;2
2449;Spini Praga;46.123637;11.097414;2
2453;Palazzine Maso S.Antonio;46.11507;11.101847;2
2454;Crosare Officina;46.110073;11.105462;2
2455;Crosare Parcheggio;46.107957;11.10538;2
2457;Gardolo Castel di Gardolo;46.113949;11.110526;2
2458;Gardolo Castel di Gardolo;46.113874;11.11117;2
2470;Jedin Sanseverino;46.051205;11.114779;2
2472;"Lamar ""Via Rossa""";46.121478;11.106445;2
2474;Via Vallunga Bivio M. Pipel;45.895183;11.0521;2
2475;Maso Valduga;45.899728;11.054359;2
2476;Bosco Della Citta';45.901507;11.055439;0
2477;Maso Valduga;45.899654;11.054251;2
2478;Via Vallunga Bivio M. Pipel;45.895148;11.051957;2
2481;Viale Dei Colli Via Vallunga;45.891102;11.049809;2
2482;Viale Dei Colli Via Vallunga;45.891319;11.049805;2
2483;"Sopramonte ""Campra""";46.078588;11.058123;1
2484;"Sopramonte ""Campra""";46.078747;11.058186;1
2485;"Brescia ""Ca Dei Gai""";46.073335;11.105624;2
2488;"Pranzelores ""Top Center""";46.089831;11.118603;1
2489;"Pranzelores ""Tridente""";46.086577;11.12013;1
2490;Povo Pantè;46.063986;11.150894;2
2491;Roncafort Caproni;46.100072;11.099813;1
2492;Roncafort Bettine;46.097604;11.102184;1
2494;Corso Verona Via Cainelli;45.877258;11.035978;2
2497;Ponte di Ravina;46.045472;11.113381;0
2498;Ponte di Ravina;46.04553;11.113645;0
2499;"Villazzano ""Chiesa""";46.049327;11.14384;1
2500;"Ss 45 ""Scala""";46.077263;11.099858;2
2501;"Sopramonte ""M.Petoci""";46.066982;11.059531;2
2502;Vigo Meano Don Perugini;46.132978;11.133928;2
2504;Mori Via Del Garda;45.851501;10.972743;2
2505;"Cognola ""Chiesa""";46.076338;11.141634;1
2506;Muralta Valsugana;46.076532;11.130338;2
2508;Toldi;45.897853;11.061812;0
2509;Costa;45.884566;11.072775;0
2510;Sp.2 Bivio Per Cisterna;45.881195;11.075461;2
2511;Isera P.Zza S.Vincenzo-O.;45.885392;11.00909;2
2514;Ss.240 Ponte Sull'adige;45.86312;10.997363;2
2515;Ss.240 Ponte Sull'adige;45.863104;10.997583;2
2520;Verdi Inama;46.066534;11.117868;1
2521;Gazzadina Le Case Nòve;46.134055;11.128326;1
2522;Gazzadina Del Porfido;46.130527;11.126294;1
2524;Cimirlo;46.067728;11.18477;0
2525;Eremo;46.068285;11.17864;0
2526;Celva;46.071795;11.176795;0
2527;Via Eremo;46.06784;11.175508;0
2528;Maso di Brenz;46.065735;11.172325;0
2529;Borino Civ.69;46.066021;11.168748;2
2530;Borino;46.067029;11.165565;2
2532;Borino Civ.69;46.066016;11.168863;2
2533;Maso di Brenz;46.065461;11.172052;0
2534;Via Eremo;46.067848;11.175603;0
2535;Eremo;46.068223;11.1787;0
2537;"Verona ""Big Center""";46.045701;11.130926;1
2538;"Verona ""Big Center""";46.045723;11.131083;1
2540;"Viale Caproni ""Luxottica""";45.864872;11.017777;2
2542;Via di Vittorio;45.863063;11.02088;0
2543;Villa Lagarina V. Zandonai;45.912409;11.031708;2
2549;"Povo ""Polo Sociale"" Cap.";46.065718;11.15801;1
2660;Patone Gera;45.897931;11.002032;2
2662;Patone Gera;45.898129;11.002109;2
2663;Gardolo 4 Nov. 2 Giugno;46.101135;11.112927;1
2664;Spini Loghét;46.120397;11.091212;1
2665;Spini Loghét;46.120478;11.091282;1
2668;"Fersina ""Zona Artigianale""";46.038346;11.124537;1
2669;"Fersina ""Zona Sportiva""";46.041621;11.123737;2
2670;Piazza Cappuccini;46.073035;11.1284;0
2671;Avancini Laste;46.071437;11.130726;2
2672;Rsa Angeli Custodi;46.069698;11.130962;0
2673;Giardini Collina;46.068199;11.129707;2
2676;Via Cittadella Via Mozart;45.901296;11.040141;1
2680;Gazzoletti Piazza Dante;46.071849;11.122012;1
2682;Povo Sommarive;46.065493;11.150401;2
2683;"Povo ""Polo Scientifico"" Est";46.067131;11.15051;2
2686;Isera P.Zza S.Vincenzo-E.;45.885395;11.009226;2
2688;"Villazzano ""Stazione Fs""";46.044677;11.139674;1
2689;"Villazzano ""Stazione Fs""";46.044632;11.139478;1
2699;"Ss.12 ""Rovercenter""";45.864129;11.029039;2
2701;Ss 349 Pozzata;46.041497;11.142601;2
2702;Parcheggio Ghiaie;46.038643;11.124383;0
2706;Via Pedroni;45.892054;11.032947;0
2707;"Via Unione ""Residenza Eos""";45.893575;11.027471;2
2710;Via Unione Scuole Filzi;45.888851;11.024409;1
2713;Dos Trento Mariano;46.073642;11.114545;2
2746;Lenzima Via Della Vittoria;45.877341;10.991795;2
2747;Lenzima Via Della Vittoria;45.877393;10.991516;2
2755;Via Baratieri;45.894959;11.040345;0
2757;Noriglio Mon. Ai Caduti;45.883883;11.07027;2
2758;Viale Vittoria Scuole Degasperi;45.884953;11.023994;1
2759;Via Delle Laste;46.072479;11.129844;0
2760;Savignano;45.938052;11.055978;0
2763;Gard.D.Mezzo Dos D.La Luna;46.11529;11.117253;2
2764;Gard.D.Mezzo Maso Garbini;46.114547;11.116633;2
2767;"Vigo Meano ""S.Pietro""";46.128254;11.134672;1
2768;Via Unione Scuole Filzi;45.8885;11.024266;2
2770;Via Comel;45.903978;11.042051;0
2775;Via Zigherane;45.879419;11.023347;0
2776;Via Zigherane;45.879872;11.022909;2
2777;Baldresca;45.880234;11.028386;0
2780;Ss 45 S.Giorgio;46.078559;11.099223;2
2782;"Spini ""Pal. Giano""";46.12167;11.095136;1
2783;"Spini ""Pal. Giano""";46.121606;11.095087;1
2784;Spini Varsavia;46.125528;11.098368;2
2785;Spini Varsavia;46.125825;11.098119;2
2786;Spini Masadori;46.119932;11.096486;1
2787;Spini Masadori;46.120106;11.096254;1
2788;Spini Bregenz;46.117063;11.092401;2
2789;Spini Bregenz;46.117025;11.092475;2
2790;"Spini ""Casa Circondariale""";46.127053;11.096713;1
2791;"Interporto ""Interbrennero""";46.111248;11.090882;1
2792;"Interporto ""Interbrennero""";46.111195;11.090792;1
2793;"Innsbruck ""Trentino Trasporti""";46.101861;11.094798;1
2794;"Innsbruck ""Trentino Trasporti""";46.102289;11.094582;1
2795;"Interporto ""Logistica 2""";46.106315;11.092329;1
2796;"Interporto ""Logistica 2""";46.106112;11.092271;1
2797;"Interporto ""Fercam""";46.108338;11.091621;1
2798;"Interporto ""Fercam""";46.108429;11.0917;1
2799;Spini Praga;46.123565;11.097434;2
2800;Pedersano;45.922485;11.020169;0
2801;"Vela ""Scuole S.Vigilio""";46.081347;11.102631;1
2802;"Villa Lagar. ""Bocciodromo""";45.920494;11.031916;2
2803;"Villa Lagar. ""Bocciodromo""";45.920164;11.031839;1
2804;"Villa Lagarina ""Al Ponte""";45.913403;11.036873;2
2805;"Villa Lagarina ""Al Ponte""";45.913209;11.037197;2
2806;"Ss.240 ""Alla Staffa""";45.872747;11.024718;2
2812;Castellano Don Zanolli;45.926204;11.00607;2
2814;Mattarello Gotarda;46.009948;11.128593;2
2815;Mattarello Fratte;46.005384;11.126518;2
2816;Via Zandonai;45.886686;11.020064;0
2817;Roncafort Nord;46.10353;11.100099;1
2820;Povo Pantè;46.06394;11.150611;2
2822;Mori Via Filzi;45.854297;10.972201;2
2824;Mori Via Terra Nera;45.850042;10.98095;2
2825;Via All'adige;45.888292;11.018708;0
2826;Mori Via Del Garda;45.85186;10.972114;2
2827;Via Monte Pipel;45.895169;11.05715;0
2828;"Interporto ""Sait""";46.113255;11.090192;1
2829;"Interporto ""Sait""";46.113317;11.090281;1
2831;Via Balista Ist. Veronesi;45.896006;11.030938;2
2832;Viale Vittoria Scuole Degasperi;45.88489;11.024081;1
2833;"Povo ""Polo Scientifico"" Ovest";46.067072;11.150437;1
2835;Calliano Via Marcolini;45.931762;11.092358;2
2836;Calliano Via Marcolini;45.931768;11.092675;2
2837;Volano Via Delle Ancone;45.917852;11.076416;2
2838;Ss.12 Fornaci;45.919361;11.085082;2
2839;Volano Via Roma;45.917223;11.069948;1
2840;Nomi Cantina Sociale;45.928305;11.074605;2
2841;Nogaredo Via Verdi;45.911561;11.024449;2
2843;Sp.20 Bivio Noarna;45.915888;11.016724;2
2844;Sp.20 Bivio Noarna;45.915912;11.016946;2
2845;Via 13 Settembre;45.908319;11.04167;0
2848;Campana Dei Caduti;45.874479;11.0409;0
2849;Marco Parco Ex De Bellat;45.843739;11.007041;2
2850;Marco Parco Ex De Bellat;45.84362;11.007289;2
2851;Marco Via S.Romedio;45.845993;11.004454;2
2852;Marco Via S.Romedio;45.847454;11.003501;2
2853;Mori Stazione;45.860779;11.001749;2
2854;Mori Stazione;45.860866;11.001649;2
2855;Via Salvetti;45.905917;11.042877;0
2856;Ss.12 Castel Pietra;45.921743;11.091347;2
2857;Ss.12 Castel Pietra;45.923644;11.092531;2
2858;Ss.12 Campagnole;45.928774;11.092995;2
2859;Ss.12 Campagnole;45.9289;11.093196;2
2861;Porte di Trambileno;45.883428;11.051695;2
2862;Porte di Trambileno;45.883552;11.051972;2
2863;Viale Schio;45.883663;11.043848;0
2864;Viale Schio;45.883793;11.043948;0
2865;Viale Zugna 13;45.884202;11.046711;0
2866;Viale Zugna 13;45.884292;11.046929;0
2867;Viale Zugna 48;45.884115;11.049105;0
2868;Viale Zugna 48;45.884311;11.049407;0
2869;Via Magazol Viale Trento;45.899211;11.041958;1
2870;"Ss.240 ""Alla Staffa""";45.872806;11.024445;2
2872;Rsa S.Bartolomeo;46.048622;11.134081;0
2873;Casette;45.880731;11.017788;0
2874;"Via Fornaci ""Texbond""";45.859154;11.00506;2
2875;"Via Fornaci ""Dana""";45.85458;11.004318;2
2876;"Via Fornaci ""Dana""";45.854392;11.004105;2
2877;"Ss.240 ""Meb""";45.867798;11.011685;2
2878;Ossario Castel Dante;45.871812;11.035579;0
2884;Via Bellini;45.899196;11.044612;0
2886;Via Vicenza Via Asiago;45.885264;11.060081;2
2887;Genovesa;45.882824;11.062596;2
2888;Genovesa;45.882447;11.062558;2
2889;Noriglio Via Jacob;45.88383;11.067469;2
2890;Noriglio Via Jacob;45.883735;11.067717;2
2891;Noriglio Parco Alle Pozze;45.88432;11.065751;2
2892;Nogaredo Vignai;45.910248;11.019374;2
2895;Cisterna Capolinea;45.883067;11.087295;2
2896;Noriglio Scuole Elementari;45.881841;11.068764;2
2897;"Sp.23 ""Nero Cubo""";45.855485;11.002055;2
2898;Viale Schio S.Maria;45.884669;11.043457;2
2899;"Via Unione ""Residenza Eos""";45.893596;11.027583;2
2900;Monte Ghello;45.887321;11.066213;2
2901;Monte Ghello;45.886975;11.066337;2
2902;"Viale Caproni ""Chizzola""";45.868327;11.021973;2
2904;"Villa Lagarina ""Poste""";45.91436;11.033091;2
2905;Castellano Don Zanolli;45.926214;11.005916;2
2906;Calliano Ss.12;45.934319;11.096026;2
2907;Calliano Ss.12;45.934261;11.095767;2
2908;Calliano Cimitero;45.936919;11.098758;2
2909;Besenello;45.94178;11.109958;2
2910;Besenello Nord;45.945755;11.106117;2
2911;Besenello Sud;45.937458;11.11091;2
2914;Noriglio Parco Alle Pozze;45.884269;11.065384;2
2915;Via Dell'artigiano;45.864346;11.017916;0
2918;Gabbiolo Capolinea;46.055543;11.149154;2
2919;Volano Via Spiazze;45.91568;11.051294;2
2922;Viale Dei Colli Bertolda;45.888472;11.051778;2
2923;Cadine Della Fornas;46.087128;11.068883;2
2924;Cadine Della Fornas;46.086991;11.069357;2
2925;Spini Palazzine;46.116615;11.100013;2
2926;Borgo S.Caterina;45.889827;11.039426;0
2927;"Venezia ""Port'aquila""";46.069509;11.127874;1
2928;Porte Chiesa;45.883426;11.053292;2
2929;Porte Via Al Brentegam;45.880779;11.052624;2
2930;Porte Via Miravalle;45.87997;11.047061;2
2931;Dosso;45.881347;11.054833;2
2932;Porte Chiesa;45.883247;11.053675;2
2933;Porte Via Al Brentegam;45.880888;11.052701;2
2934;Porte Via Miravalle;45.879896;11.046851;2
2935;Dosso;45.881423;11.054627;2
2936;Sp.89 Maso Brentegam;45.880398;11.050848;2
2937;Via Fornaci Via Pineta;45.864929;11.006105;2
2938;Via Fornaci Via Pineta;45.864743;11.005587;2
2939;Funivia-Staz. di Valle-Trento;46.069594;11.115698;2
2940;Funivia-Staz. di Monte-Sardagna;46.065986;11.102699;2
2945;Mattarello Rozola;46.012721;11.13216;2
2946;Mattarello Rozola;46.01274;11.132017;2
2947;Mattarello Regole;46.010984;11.13167;2
2948;Mattarello Regole;46.011238;11.131717;2
2949;"Mattarello ""Parco""";46.008686;11.131522;2
2950;"Mattarello ""Parco""";46.007896;11.131472;1
2951;"Mattarello ""Torre Franca""";46.006528;11.131035;2
2952;"Mattarello ""Torre Franca""";46.005877;11.129908;2
2953;Mattarello Ex Stazione;46.007801;11.126954;2
2954;Mattarello Sud;46.002725;11.12631;1
2957;Piazza Centa;46.076198;11.123674;0
2960;Cadine Voltei;46.086415;11.068176;2
2961;Centa Brennero;46.075624;11.123987;1
2962;Via Brigata Mantova;45.868249;11.036135;0
2963;Via Brigata Mantova;45.868273;11.036219;0
2964;Via Cipressi;45.870152;11.032799;0
2965;Stadio Quercia;45.901153;11.036354;0
2966;Via Tonetti;45.90278;11.037626;0
2968;Pomarolo S.Antonio;45.93395;11.047924;2
2969;Pomarolo S.Antonio;45.933737;11.047952;2
2970;Vigo Meano Don Perugini;46.133146;11.133777;2
2971;"Melta ""Case Itea""";46.10231;11.118229;1
2973;Piazzale Divisioni Alpine;46.071095;11.109908;1
2979;Via Magazol Via Cimarosa;45.899853;11.039703;2
2981;Isera Scuole Elementari;45.882633;11.00833;2
2982;"Viale Del Lavoro ""Rovercenter""";45.863793;11.026965;2
2983;Via Pasqui;45.899327;11.037319;0
2984;Via Parteli;45.895739;11.038201;0
2986;Via Circonvallazione;45.883352;11.038638;0
2987;Stadio Quercia;45.90094;11.036197;0
2988;Marco Nord;45.849555;11.012767;2
2989;Marco Nord;45.849354;11.01256;2
2990;Parcheggio Via Lidorno;46.033521;11.125927;0
2991;Parcheggio Area Camper;46.03426;11.127221;0
2992;Via Del Garda Via Porte Rosse;45.872791;11.028362;2
2993;Via Del Garda Via Porte Rosse;45.872854;11.0282;2
2994;Clinica Solatrix;45.897743;11.04542;0
2996;Via Unione Via Zotti;45.886411;11.023182;2
2998;Via Campagnole;45.889321;11.037107;0
2999;Piazza Filzi Via Del Porto;45.884014;11.018082;2
3000;Isera Asilo;45.884211;11.008257;2
3001;Via Perosi;45.904188;11.044079;0
3002;Villa Lagarina Sc.Medie;45.91794;11.03165;2
3003;Strada Degli Artiglieri;45.869867;11.036383;0
3004;Castellano Don Zan. Park;45.926251;11.00718;2
3005;Stazione Fs;45.89171;11.034206;0
3006;Via Benacense Scuole Ex Edili;45.880003;11.035388;2
3007;Isera Asilo;45.884644;11.00779;2
3008;Via Setaioli;45.887242;11.041458;0
3009;Volano Casa di Riposo;45.920404;11.067034;2
3010;Nogaredo Via S.Biagio;45.911889;11.025795;2
3011;Viale Dei Colli Campolongo;45.887912;11.057153;2
3012;Viale Dei Colli Campolongo;45.887952;11.057521;2
3014;Lavis Via Nazionale;46.138664;11.108985;0
3016;Lavis Piazza Grazioli;46.139472;11.111335;0
3017;Lavis Via Dei Colli;46.14184;11.11238;0
3018;Lavis Via Cembra;46.144048;11.112649;0
3019;Lavis Bivio Fratte;46.146836;11.111036;0
3020;Lavis Bivio Fratte;46.146734;11.111007;0
3021;Lavis Strada Fonda;46.145627;11.105818;0
3022;Lavis Strada Fonda;46.145301;11.106307;0
3023;Lavis Via Rosmini;46.142197;11.108504;0
3024;"Lavis ""Municipio""";46.139305;11.112131;0
3027;"Lavis ""Stazione Fs""";46.147934;11.097347;0
3028;Lavis Via Filos;46.145584;11.09729;0
3029;Lavis Via Filos;46.145665;11.097523;0
3030;Lavis Via di Vittorio 78/84;46.136413;11.086541;0
3031;Lavis Via di Vittorio 64;46.133537;11.087634;0
3032;Lavis Via di Vittorio 26;46.134301;11.093436;0
3033;Lavis Via Fermi;46.136341;11.093358;0
3034;Lavis Via di Vittorio 6;46.134621;11.097322;0
3035;Lavis Via Zandonai;46.138874;11.101196;0
3036;Pressano Piazza;46.153557;11.106927;0
3037;"Pressano ""Oratorio""";46.152127;11.106138;0
3038;Pressano Via Cl. Augusta;46.157309;11.107777;0
3039;Pressano Via Cl. Augusta;46.157338;11.107839;0
3040;Pressano Via Sant'antonio;46.154093;11.109902;0
3041;Pressano Via Pilati;46.15003;11.104334;0
3043;Nave S.Felice Maso Rover;46.161439;11.109306;0
3044;Nave S.Felice Maso Rover;46.161333;11.109326;0
3045;Nave S.Felice Zona Stuadri;46.170412;11.118105;0
3046;Nave S.Felice Case Tenaia;46.162483;11.110392;0
3047;Sorni;46.172283;11.125893;0
3048;Sorni Bivio;46.174864;11.122294;0
3049;Sorni Bivio;46.174341;11.122074;0
3050;Sorni Bivio Via Toresela;46.174616;11.123075;0
3051;Sorni Via Dalmaso;46.174676;11.124554;0
3052;Sorni Via Dalmaso;46.174737;11.124493;0
3053;Sorni Bivio Maso Zatelli;46.175439;11.125608;0
3054;Sorni Bivio Maso Zatelli;46.175315;11.125547;0
3055;Sorni Ss.12;46.174042;11.12067;0
3056;Maso Zatelli;46.176495;11.125399;0
3057;Maso Zatelli;46.176515;11.125336;0
3058;Maso Del Narciso;46.177635;11.12747;0
3059;Maso Del Narciso;46.177651;11.127542;0
3060;Maso Rosabel;46.175362;11.131343;0
3061;Maso Rosabel;46.1754;11.131366;0
3062;Sp.131 Bivio Laste;46.172498;11.128994;0
3063;Maso Panizza di Sopra;46.168742;11.125581;0
3064;Maso Panizza di Sopra;46.168616;11.125299;0
3065;Maso Zancanar;46.165226;11.121665;0
3066;Maso Zancanar;46.164958;11.121624;0
3067;Maso Poli;46.16302;11.118873;0
3068;Maso Poli;46.163013;11.119002;0
3069;Maso Luchin;46.160608;11.116311;0
3070;Maso Luchin;46.160585;11.116362;0
3071;Maso Tratta;46.159249;11.115103;0
3072;Maso Spon;46.159065;11.119271;0
3073;Maso Clinga Via Clinga;46.153691;11.110336;0
3074;Maso Clinga;46.152243;11.11173;0
3077;Maso Clinga Via Furli;46.15055;11.108069;0
3078;Lavis Maso Furli;46.148786;11.109659;0
3079;Lavis Maso Furli;46.148825;11.109738;0
3080;Nave S.Felice;46.164561;11.112234;0
3081;Maso Tratta;46.158507;11.114959;0
3082;Nave S.Felice;46.164589;11.112097;0
3083;Pressano Piazza;46.153631;11.107061;0
3084;Nave S.Felice Stazione Ftm;46.166718;11.113208;0
3085;Nave S.Felice Case Tenaia;46.162105;11.110088;0
3086;Sp.131 Bivio Laste;46.1731;11.129881;0
3087;Sorni Bivio Via Toresela;46.174356;11.122754;0
3088;Pedersano S.Rocco;45.919576;11.019213;2
3089;Pedersano S.Rocco;45.919588;11.019124;2
3091;"Lavis Cantina ""La-Vis""";46.137002;11.109623;1
3092;"Cervara ""Scalinata""";46.072081;11.128289;2
3094;Lavis Cimitero;46.141564;11.105781;0
3095;Asiago S. Bartolameo;46.047682;11.137738;1
3096;Vela Centro;46.082085;11.102043;2
3097;"Fersina ""Campi Da Tennis""";46.044632;11.12169;2
3098;Molina Via Roma;45.856799;10.988958;2
3099;Molina Ss.240;45.853729;10.981578;2
3100;"Lavoro E Scienza ""Buc""";46.058772;11.115079;1
3104;"Sanseverino ""Funivia""";46.067711;11.115188;2
3105;"Montegrappa ""Funivia""";46.069134;11.115398;2
3106;"Papiria ""Italcementi""";46.069586;11.112191;2
3107;Mori Via Benedetti;45.852902;10.973215;1
3108;"Mori ""Cimitero""";45.850804;10.976969;2
3109;"Albere ""Muse""";46.06269;11.113605;1
3110;San Lazzaro Ponte Avisio;46.136804;11.116591;1
3111;Lamar Sponda Trentina;46.134686;11.111923;1
3112;Lavis Piazza Caduti;46.138012;11.114866;2
3113;"Lavis ""Municipio""";46.139535;11.11194;2
3114;Lavis Rosmini Segantini;46.142856;11.107967;2
3115;Lavis Cembra;46.143221;11.106588;1
3116;Lavis Cembra;46.142828;11.10509;1
3117;"Lavis ""Cimitero""";46.141545;11.105815;1
3118;Lavis Stazione Ftm;46.140178;11.106532;2
3126;"Villa Lagarina ""Poste""";45.914132;11.032987;2
1;Trento. Autostazione;46.070785;11.118457;0
2;Trento. Solteri Bivio Ss.12;46.084046;11.119728;0
3;Trento. Bren Center;46.091322;11.11566;0
4;Lavis;46.138362;11.109135;0
5;S.Michele;46.193685;11.13252;0
6;Salorno;46.240611;11.208101;0
7;Laghetti;46.271949;11.23897;0
8;Egna-Neumarkt;46.315974;11.272446;0
9;Cela-Aguai Bivio;46.291366;11.418715;0
10;Castello di F. Via Stazione;46.28207;11.428963;0
11;Castello di Fiemme;46.281012;11.434818;0
12;Cavalese. Bivio Carano;46.287418;11.441658;0
13;Cavalese. Htl Garden;46.28927;11.448063;0
14;Cavalese. Piazza Partigiani;46.291892;11.455502;0
15;Cavalese. Piazza Verdi;46.290336;11.460686;0
16;Cavalese. Autostazione;46.287909;11.463231;0
17;Tesero. Giardino Dolomiti;46.292467;11.484689;0
18;Tesero. Loc. Piera;46.292228;11.49212;0
19;Tesero. Piazza Battisti;46.288879;11.510906;0
20;Panchia'. Casa Cantoniera;46.286998;11.5321;0
22;Ziano di Fiemme. Via Nazionale;46.286636;11.55967;0
23;Ziano di Fiemme. Roda;46.288371;11.569359;0
24;Predazzo. Borgo Nuovo;46.30654;11.598949;0
25;Predazzo. Autostazione;46.309522;11.604922;0
26;Predazzo. Distrib. Agip;46.31718;11.597105;0
27;Predazzo. Impianti Latemar;46.328662;11.600166;0
28;Mezzavalle;46.337924;11.610365;0
29;Forno;46.347286;11.625627;0
30;Forno. Albergo Foresta;46.354425;11.633768;0
31;Moena. Caserma Carabinieri;46.369234;11.652293;0
32;Moena. Albergo Trentino;46.372945;11.655268;0
34;Moena. Pezzè;46.38076;11.66557;0
35;Soraga. Htl Al Lago;46.392163;11.666737;0
36;Soraga;46.396751;11.669549;0
37;Vigo di Fassa. Carpe Diem;46.421412;11.676427;0
38;S.Giovanni. Htl Dolomiti;46.420879;11.681906;0
39;Pozza di Fassa;46.427263;11.682909;0
40;Pera di Fassa;46.435753;11.690473;0
41;Pera di Fassa. Al Ponte;46.441683;11.695465;0
42;Mazzin di Fassa;46.45796;11.701361;0
43;Campestrin;46.462705;11.714972;0
44;Fontanazzo;46.469689;11.727811;0
45;Campitello. Piazza;46.475648;11.740928;0
46;Canazei. Htl Caminetto;46.479178;11.759193;0
47;Canazei. Gries;46.477902;11.763957;0
48;Canazei. Via Pareda;46.476195;11.770866;0
49;Canazei. Impianti Belvedere;46.474085;11.774368;0
50;Canazei. Rotatoria Faloria;46.471561;11.777812;0
51;Alba. Htl Ariston;46.466322;11.780889;0
52;Alba. Via De Costa;46.461951;11.782995;0
53;Alba. Impianti Ciampac;46.459391;11.786084;0
54;Penia. Str. Pian Trevisan;46.457433;11.791831;0
55;Penia. Htl Panarel;46.456575;11.801529;0
56;Penia Alta;46.458446;11.799736;0
58;Penia. Htl Panarel;46.45671;11.801523;0
59;Penia. Str. Pian Trevisan;46.457619;11.792331;0
60;Alba. Impianti Ciampac;46.458437;11.789031;0
61;Alba. Via De Costa;46.462159;11.782943;0
62;Canazei. Rotatoria Faloria;46.471443;11.777931;0
63;Canazei. Impianti Belvedere;46.474072;11.774719;0
64;Canazei. Gries;46.477768;11.764654;0
65;Canazei. Htl Caminetto;46.479392;11.759629;0
66;Campitello. Piazza;46.476684;11.740902;0
67;Fontanazzo;46.46961;11.726986;0
68;Pozza di Fassa;46.427927;11.683273;0
69;Cavalese. Via Esterle;46.293123;11.457258;0
70;Cavalese. Htl Garden;46.289338;11.447858;0
71;Laghetti-Laag;46.272133;11.23877;0
72;Salorno-Salurn;46.240219;11.207185;0
73;Lavis;46.13704;11.109579;0
74;Trento. Staz. Fs;46.072601;11.120053;0
77;Trento. Assoc. Artigiani;46.083017;11.120408;0
79;Gardolo. Via Bolzano;46.10856;11.10875;0
80;Gardolo. Bivio Spini;46.119077;11.106058;0
81;Gardolo. Loc.Lamar;46.129072;11.109727;0
82;Lavis. Via Cembra 16;46.143209;11.106615;0
83;Lavis. Via Bresadola;46.143939;11.112485;0
84;Lavis. Via Cembra 50;46.141936;11.11444;0
85;Maso Franch;46.143817;11.118837;0
86;Mosana. Loc. Ai Castagnari;46.150493;11.125736;0
87;Mosana;46.1544;11.137227;0
88;Verla;46.157056;11.152525;0
89;Verla. Cantina Rossi;46.155284;11.156325;0
90;Valternigo;46.16079;11.158786;0
91;Ville di Giovo;46.165786;11.157337;0
92;Ville di Giovo. Maso Roncador;46.162213;11.140582;0
93;Passo Croce;46.161488;11.134618;0
94;Palu' di Giovo;46.158216;11.140399;0
95;Verla. Bivio;46.155899;11.160677;0
96;Ceola;46.159677;11.171449;0
97;Lisignago;46.160169;11.187697;0
98;Lisignago. Loc.Bedin;46.164967;11.203561;0
99;Cembra. Cimitero;46.17452;11.217344;0
100;Cembra;46.174957;11.22171;0
101;Fadana;46.177556;11.225067;0
102;Cembra. Loc.Molini;46.180272;11.228393;0
103;Faver Bivio;46.18096;11.231877;0
104;Faver;46.181717;11.23779;0
105;Faver. Ufficio Postale;46.183756;11.24075;0
106;Faver. Loc. Portegnago;46.197033;11.246629;0
107;Valda. Capitello;46.20707;11.262063;0
108;Valda;46.206785;11.266459;0
109;Grumes;46.221664;11.293926;0
110;Grauno;46.229416;11.29825;0
111;Capriana. Case Nuove;46.261034;11.339907;0
112;Capriana;46.26279;11.33945;0
113;Capriana. Albergo Miravalle;46.262058;11.343987;0
114;Carbonare-Rover;46.266759;11.35174;0
115;Stramentizzo. Bivio;46.266506;11.406481;0
116;Molina di Fiemme;46.272943;11.417691;0
117;Molina di F. Via Segherie;46.272417;11.424248;0
118;Molina di Fiemme. Chiesa;46.274183;11.416701;0
119;Castello di Fiemme Conc.Fiat;46.278943;11.430131;0
121;Castello di Fiemme;46.281234;11.434746;0
123;Molina di Fiemme Via Segherie;46.27241;11.424118;0
124;Grumes;46.221406;11.294187;0
125;Faver;46.18119;11.236667;0
126;Fadana;46.178186;11.225986;0
127;Cembra;46.175121;11.22204;0
128;Lisignago;46.160228;11.187881;0
129;Ceola;46.15959;11.170862;0
130;Verla;46.157152;11.152806;0
131;Lavis. Via Bresadola;46.143962;11.112741;0
132;Lavis. Via Cembra 16;46.142758;11.105019;0
133;Lamar di Gardolo. Ss.12-Ftm;46.125857;11.107857;0
134;Gardolo. Via Bolzano;46.108391;11.108627;0
135;Gardolo. Cicli Moser;46.102642;11.110465;0
137;Casatta Valfloriana;46.250382;11.344527;0
138;Barcatta;46.250423;11.349653;0
139;Villaggio Italo-Svizzero;46.247856;11.346655;0
140;Dora';46.251864;11.355629;0
141;Palu' di Sicina;46.256918;11.363011;0
142;Casanova di Sicina;46.241994;11.349804;0
143;Valle;46.238606;11.351276;0
144;Montalbiano;46.234427;11.355128;0
145;Sicina;46.230006;11.358746;0
532;Trento. Via Giusti Cimitero;46.063017;11.118982;0
533;Trento. Via V.Veneto;46.057701;11.119288;0
535;Trento. Via Lorenzoni;46.05838;11.12296;0
537;Trento. Via S.Francesco;46.066636;11.126199;0
538;Montesover;46.217085;11.327081;0
539;Montesover-Strada Vernera;46.218167;11.326636;0
540;Montesover-Strada Vernera 17;46.21739;11.32414;0
541;Montesover-Carrozzeria;46.215298;11.328098;0
542;Sveseri Bivio;46.207641;11.327802;0
543;Piazzoli;46.21426;11.323606;0
544;Facendi;46.214916;11.321416;0
546;Sover;46.223892;11.312413;0
548;Nave S.Felice;46.164603;11.112264;0
549;Sorni. Bivio;46.174732;11.122247;0
551;Sorni;46.173837;11.120534;0
552;Nave S.Felice;46.166611;11.112919;0
557;Cavalese. Case Itea;46.289446;11.469194;0
558;Marco di Cavalese;46.290187;11.476965;0
559;Milon;46.285864;11.479723;0
560;Masi. Campo Sportivo;46.283461;11.480803;0
561;Masi. Piccolo Bar;46.283362;11.483304;0
562;Masi di Cavalese;46.283212;11.485244;0
563;Masi. Via Chiesa Civ.118;46.284433;11.489103;0
564;Marco di Cavalese;46.290229;11.477097;0
565;Cavalese. Case Itea;46.289558;11.469406;0
566;Carano. Via Giovanelli 11;46.292293;11.442654;0
567;Carano. Municipio;46.292223;11.440482;0
568;Carano;46.291791;11.438788;0
569;Carano. Via Giovanelli;46.289851;11.438585;0
570;Carano. Garnì Belvedere;46.287394;11.43585;0
572;Villaggio Veronza Bv.Pizzeria;46.287844;11.428645;0
574;Villaggio Veronza Via Pale;46.28877;11.431444;0
575;V.Veronza. Htl Veronza;46.289866;11.433196;0
578;Trento. Via Valsugana;46.068328;11.136284;0
579;Ponte Alto;46.073788;11.150435;0
580;Pine'. Bivio;46.081906;11.194966;0
581;Sille;46.086064;11.202928;0
582;Madrano. Belvedere;46.084669;11.210385;0
584;Madrano;46.085925;11.214309;0
585;Madrano. Via Della Vizza;46.091339;11.212176;0
586;Nogare';46.103925;11.211295;0
587;S. Mauro. Bivio;46.116608;11.222359;0
588;Tressilla;46.128797;11.237223;0
589;Baselga. Municipio;46.130018;11.243837;0
590;Baselga di Pine'. Lago;46.135502;11.249832;0
591;Sternigo. Bivio;46.141639;11.257918;0
592;Rizzolaga;46.146548;11.264075;0
593;Campolongo;46.149595;11.269497;0
594;Piazze. Bivio;46.155325;11.277562;0
595;Piazze di Bedollo;46.155637;11.288073;0
596;Castellani-Regnana Bivio;46.15977;11.298662;0
597;Centrale di Bedollo;46.160829;11.302257;0
598;Bedollo;46.164986;11.301338;0
599;Bedollo. Bivio;46.170025;11.312436;0
600;Bedollo. Villaggio;46.17291;11.317048;0
601;Brusago. Via Verdi;46.175773;11.321437;0
602;Brusago;46.182124;11.325856;0
603;Brusago-Civ. 4;46.186574;11.32959;0
604;Brusago. Maso Gabart;46.194275;11.327783;0
605;Sette Fontane. Bivio;46.199009;11.327735;0
606;Sveseri;46.206442;11.323661;0
607;Bedollo;46.164987;11.301522;0
608;Piazze di Bedollo;46.155859;11.287329;0
609;Campolongo;46.149607;11.269109;0
610;Pine'. Bivio;46.081958;11.196437;0
611;Ponte Alto;46.073949;11.150313;0
612;Trento. Port'aquila;46.069729;11.128322;0
613;Trento. Via Perini;46.060824;11.124149;0
614;Civezzano. Centro Europa;46.083653;11.19816;0
615;Civezzano. Quadrivio;46.090069;11.185165;0
616;Civezzano;46.09187;11.18317;0
617;Cire'. Strada Statale;46.077144;11.204337;0
618;Torchio;46.090706;11.197405;0
619;Cogatti;46.09381;11.197011;0
620;Seregnano;46.094473;11.20044;0
621;Roverè;46.090453;11.193243;0
622;Bampi. Bivio;46.093748;11.190637;0
623;Barbaniga;46.101737;11.186336;0
624;S. Agnese;46.106352;11.183638;0
625;S.Agnese. Via Delle Scornie;46.10652;11.186155;0
626;Mazzanigo;46.103636;11.189191;0
627;Penedallo. Via Alle Praderie;46.102448;11.192425;0
628;Penedallo;46.101015;11.192549;0
629;Bosco di Civezzano;46.111066;11.170987;0
630;Bosco. Loc. Canova;46.113878;11.175537;0
632;Torchio. S.P. 71;46.091408;11.198339;0
633;Valle Fornace;46.111868;11.210359;0
634;Fornace. Bivio;46.119113;11.216113;0
636;Fornace;46.118059;11.208109;0
637;Fornace. Via Dei Pradolini 4;46.120276;11.208418;0
638;S.Stefano;46.128532;11.212036;0
639;Fornace. Maso Donati;46.12044;11.216452;0
640;Lases;46.143537;11.21887;0
641;Albiano. Via Roma Civ.35;46.143815;11.198962;0
642;Albiano;46.144616;11.193775;0
643;Albiano. Via S.Antonio;46.146255;11.190461;0
644;Albiano Via S.Antonio 90;46.148465;11.187402;0
646;Lases. Civ. 30;46.144612;11.219167;0
647;Lases. Loc. Ronc Del Mela;46.149543;11.221567;0
648;Lona. Via Provinciale;46.156074;11.230499;0
649;Lona;46.159058;11.233019;0
650;Lona. Loc. Piazzole;46.162898;11.24096;0
651;Sevignano;46.170788;11.247115;0
652;Piazzo di Segonzano. Bivio;46.180042;11.257961;0
653;Scancio di Segonzano;46.187469;11.258369;0
654;Scancio di Segonzano-Snack Bar;46.191891;11.25959;0
655;Scancio di Segonzano Mad.Aiuto;46.196167;11.258609;0
656;Gaggio/Gresta Bivio;46.207793;11.286814;0
657;Valcava. Bivio;46.217869;11.305171;0
658;Sover. Bar Vittoria;46.221405;11.314759;0
660;Sover. Loc. Mezauno;46.231132;11.318871;0
661;Piscine;46.239915;11.324715;0
662;Piscine. Loc. Grava;46.246753;11.332531;0
664;Pradel;46.260329;11.355415;0
665;Loc. Ronco;46.260434;11.384831;0
666;Loc. Melae;46.263129;11.397785;0
667;Stramentizzo. Bivio;46.26641;11.406553;0
669;Pradel;46.262399;11.355414;0
670;Scancio di Segonzano-Snack Bar;46.191608;11.258888;0
671;Lases. Distributore Esso;46.150439;11.222691;0
672;Lases. Pesa;46.14374;11.218679;0
673;Pergine V. V.Le Venezia;46.061249;11.23703;0
675;Pergine-Via Baratieri;46.063948;11.242774;0
676;Pergine V. Distr. Tamoil;46.065171;11.247426;0
677;Zivignago;46.067277;11.252917;0
678;Zivignago Cons.S.Orsola;46.070154;11.257157;0
679;Canezza. Maso Sleifer;46.076277;11.269734;0
682;Canezza;46.076975;11.274488;0
683;Canezza. Difr. Al Sole;46.08015;11.275942;0
684;Canezza. Maso Dràzeri;46.084558;11.277665;0
685;Viarago. Bivio;46.086387;11.277782;0
686;Mala. Loc.Agnoletti;46.088687;11.279789;0
687;Mala;46.090561;11.281509;0
688;S.Orsola. Loc.Mantovani;46.095744;11.289212;0
689;Stefani;46.098591;11.294201;0
690;S.Orsola. Loc.Bertoldi;46.102574;11.298238;0
691;S. Orsola;46.107694;11.301876;0
693;S.Orsola. Loc.Donadi;46.111675;11.306192;0
694;Bagni Terme di S.Orsola;46.113765;11.307884;0
695;S.Orsola. Loc. Doss Martin;46.114671;11.307595;0
696;Marcheli-Bivio Borti E Cont;46.117555;11.310062;0
697;Fontanari. Maso Marcheli;46.119435;11.313233;0
698;Fontanari;46.12117;11.316451;0
699;Palù Del F. Redebus;46.130239;11.34091;0
700;Palu'del F. Loc. Sigismondi;46.129806;11.34449;0
701;Palu' Del F. Htl Lagorai;46.129513;11.348871;0
702;Palu' Del Fersina;46.129732;11.352863;0
703;S. Orsola;46.107832;11.302001;0
708;Moena. Htl Campagnola;46.374005;11.665002;0
709;Alpe Lusia;46.367806;11.68605;0
710;Fango;46.368797;11.728391;0
711;Fango. Alb. Negritella;46.374788;11.751959;0
712;P.So S.Pellegrino. S.Cost.;46.378746;11.784385;0
713;Passo S.Pellegrino;46.378141;11.789624;0
714;P.So S.Pellegrino. Chiesetta;46.378324;11.793361;0
715;P.S.Pellegrino-Fun;46.379111;11.802043;0
716;P.So S.Pellegrino. Biviofreda;46.378811;11.813499;0
717;Zingari;46.376211;11.820585;0
718;Falcade Alto;46.355345;11.858403;0
719;Falcade. Chiesa;46.354317;11.86169;0
720;Falcade. Via Serafini;46.355063;11.866753;0
721;Falcade;46.358375;11.87286;0
722;Trento. Off.Conotter;46.075975;11.101119;0
723;Trento. Via Brescia;46.070742;11.113498;0
724;Montevideo;46.08037;11.098519;0
725;Cadine;46.088572;11.064983;0
726;Terlago. Bivio;46.091545;11.055123;0
727;Vigolo Baselga. Paese;46.081449;11.044962;0
728;Vigolo Baselga. Pallonc.Rosso;46.077626;11.032471;0
729;Vezzano. Piazza;46.078435;11.000154;0
731;Vezzano. Bivio V.Cavedine;46.071568;10.994702;0
733;Padergnone. Loc.Barbazan;46.060257;10.990201;0
734;Padergnone;46.062089;10.98885;0
735;Padergnone. Case Enel;46.059535;10.984616;0
736;Due Laghi-Hotel Miralaghi;46.058851;10.979179;0
737;Castel Toblino;46.056347;10.965435;0
739;Sarche. Maso Caffaro;46.04581;10.945322;0
740;Sarche. Bar Miravalle;46.044952;10.943916;0
741;Comano Terme;46.041193;10.881908;0
742;Ponte Arche Autostazione;46.035587;10.873615;0
743;Ponte Arche-Bel Sit;46.036219;10.864706;0
744;Ponte Ragoli. Sp34 Dir. Ragoli;46.050483;10.785335;0
745;Saone;46.042568;10.767067;0
746;"Zuclo ""Eurospin""";46.040576;10.749698;0
748;Ponte Ragoli. Ss237 Dir. Saone;46.049763;10.785623;0
749;Ragoli-Pez;46.051078;10.781304;0
750;Ragoli;46.050948;10.776267;0
751;Preore;46.046153;10.758108;0
752;Preore-Loc.Signor;46.04462;10.752411;0
754;Zuclo Bivio-Segheria Tonello;46.038712;10.744444;0
755;Bolbeno-Bivio;46.033969;10.735272;0
756;Tione. Bar Arnò;46.034863;10.732479;0
757;Tione. Autostazione;46.033131;10.726113;0
758;Tione-Via Circonvallaz.;46.040221;10.727471;0
759;Verdesina Bivio;46.056996;10.716267;0
760;Villa Rendena;46.062248;10.712321;0
761;Iavrè;46.068035;10.711736;0
762;Iavrè-Artigianato;46.070886;10.714294;0
763;Darè;46.075922;10.717566;0
764;Vigo Rendena;46.078732;10.718955;0
765;Vigo Rendena-Biv.Val S.Val.;46.082036;10.722141;0
766;Pelugo;46.087077;10.722712;0
767;Pelugo-Artigianato;46.087761;10.725074;0
768;Borzago;46.098856;10.734735;0
769;Spiazzo Rendena;46.103132;10.73769;0
770;Mortaso;46.106645;10.739858;0
771;Spiazzo Rend.-Concess.Cozzio;46.110256;10.747425;0
772;Strembo-Bivio Bocenago;46.118282;10.752804;0
773;Strembo;46.120329;10.751976;0
774;Caderzone;46.128702;10.756513;0
775;Caderzone-Off. Alfa Romeo;46.131331;10.764028;0
776;Giustino;46.146116;10.768268;0
777;Giustino-Hotell Royal;46.152048;10.76649;0
778;Pinzolo;46.157163;10.765985;0
779;Pinzolo-Funivie;46.16344;10.765456;0
780;Carisolo;46.169319;10.764146;0
781;Carisolo-Pinemonte Basso;46.187676;10.772542;0
782;S.Antonio di M.-Camping Faè;46.185863;10.779171;0
783;S.Antonio di M.-Biv.V.Nambr.;46.188184;10.777522;0
784;S.Antonio di M. Punto Info Pab;46.19011;10.786137;0
785;S.Antonio di Mavignola;46.191315;10.789131;0
786;S.Antonio di M.-Rio Fornas;46.193845;10.795952;0
787;S.Antonio di M.-Rio V.Rastrel;46.195038;10.795641;0
788;S.Antonio di M.-Palù;46.197237;10.797152;0
789;S.Antonio di M.-Mumble Fratè;46.200598;10.804009;0
790;M.Campiglio. Loc.Fontanella;46.208855;10.820243;0
791;M.Campiglio. Htl Lorenzetti;46.214136;10.822362;0
792;M.Campiglio. Htl Betulla;46.220871;10.822454;0
793;M.Campiglio. Pietra Gr.;46.224519;10.825377;0
794;M.Campiglio. Laghetto;46.226018;10.827865;0
795;M.Campiglio. Des Alpes;46.230343;10.827882;0
796;M.Campiglio. Pradalago;46.23403;10.826075;0
797;M.Campiglio. Htl Dahu;46.234408;10.823826;0
798;M.Campiglio. Brenta Alta;46.231941;10.826142;0
799;M.Campiglio. Biv. V.Nambino;46.235465;10.826424;0
800;Funivia Grostè;46.236312;10.835359;0
801;Campo Carlo Magno;46.242978;10.840028;0
803;Campo Carlo Magno;46.243224;10.840249;0
804;Funivia Grostè;46.236409;10.83546;0
807;M.Campiglio. Loc.Fontanella;46.208587;10.819858;0
808;S.Antonio di M.-Mumble Fratè;46.200491;10.803661;0
809;S.Antonio di Mavignola;46.191345;10.788899;0
811;S.Antonio di M. Punto Info Pab;46.190029;10.78559;0
812;S.Antonio di M.-Biv.V.Nambr.;46.188255;10.778146;0
813;S.Antonio di M.-Camping Faè;46.185658;10.778451;0
814;Carisolo;46.169098;10.763888;0
815;Pinzolo-Funivie;46.163722;10.76527;0
816;Giustino-Hotel Royal;46.153492;10.766251;0
817;Strembo-Bivio Bocenago;46.118148;10.752735;0
818;Spiazzo Rend.-Conc.Cozzio;46.110693;10.747685;0
819;Mortaso;46.106523;10.739582;0
820;Spiazzo Rendena;46.102587;10.736819;0
821;Borzago;46.098484;10.734349;0
822;Pelugo-Artigianato;46.088019;10.725276;0
823;Vigo Rendena-Biv.Val S.Val.;46.082367;10.722319;0
824;Vigo Rendena;46.0789;10.719151;0
825;Darè;46.075878;10.717462;0
826;Iavrè;46.06884;10.711463;0
827;Verdesina Bivio;46.056765;10.716636;0
829;Tione-Via Circonvallaz.;46.040013;10.727516;0
830;Terlago;46.097757;11.044737;0
831;Covelo. Bivio;46.098388;11.022714;0
832;Covelo. Via Pooli;46.096643;11.018071;0
833;Covelo;46.09829;11.019002;0
834;Maso Ariol;46.106105;11.026539;0
835;M. Terlago. Bivio;46.108224;11.035937;0
836;Monte Terlago. Piazza;46.109656;11.037891;0
837;M. Terlago. Vallene;46.108947;11.042847;0
838;M. Terlago. Htl 2 Laghi;46.112079;11.046116;0
839;Cadine;46.088856;11.06451;0
841;Trento. Maso Pedrotti;46.07556;11.09822;0
842;Trento. Loc. S.Antonio;46.069885;11.100436;0
843;Sardagna-Maso Scala;46.069871;11.097745;0
844;Sardagna;46.064849;11.097287;0
845;Sardagna-Tornante Sp 85;46.071419;11.08698;0
846;Candriai;46.065418;11.083405;0
847;Candriai. Erica;46.063071;11.082257;0
848;Centro Degasperi;46.05963;11.077753;0
849;Vaneze-Bivio Prà Della Fava;46.056969;11.076345;0
850;Bolbeno-Bivio;46.034111;10.735531;0
851;Zuclo Bivio-Segh. Tonello;46.038509;10.744192;0
852;Zuclo Morace Antichità R;46.04191;10.753683;0
853;Preore-Loc. Signor;46.04491;10.752912;0
854;Ragoli;46.050929;10.77637;0
855;Ragoli-Pez;46.050939;10.780059;0
856;Zuclo Morace Antichità;46.041983;10.753582;0
857;Saone;46.042536;10.766226;0
858;Ponte Ragoli. Ss237 Dir.Sarche;46.050263;10.786767;0
859;Ponte Arche-Bel Sit;46.036139;10.864626;0
861;Comano Terme;46.041141;10.882863;0
863;Padergnone;46.061989;10.989462;0
865;Vigolo Baselga. Ss45;46.080844;11.043568;0
868;Tione. Bar Arnò;46.034256;10.733255;0
869;Sarche. Cassa Rurale;46.046415;10.952064;0
870;Sarche. Centro Comm.;46.046439;10.952246;0
871;Vaneze;46.051918;11.071935;0
872;Vaneze-Sp.85;46.051411;11.069388;0
873;Vaneze-Norge;46.049242;11.066657;0
874;Vaneze-Baita Montesel;46.045839;11.065181;0
875;Vaneze-Ex Snack Bar;46.044388;11.060835;0
877;Viote;46.021403;11.04117;0
878;Vason;46.039194;11.058393;0
879;Vaneze-Baita Montesel;46.046329;11.065046;0
880;Candriai;46.065443;11.083975;0
881;Trento. Loc.Conotter;46.076761;11.099985;0
884;Zuclo;46.034159;10.747299;0
885;Bolbeno;46.032566;10.737549;0
887;Coltura;46.05827;10.793848;0
889;Preore Bivio Montagne;46.046118;10.756554;0
890;Montagne. Cort;46.050722;10.753625;0
891;Montagne. Larzana;46.058444;10.751302;0
892;Montagne. Binio;46.065608;10.755138;0
894;Zuclo;46.034086;10.747093;0
895;Pinzolo;46.157195;10.764398;0
896;Fraveggio. Bivio;46.078617;10.993862;0
897;Lon;46.084137;10.992651;0
898;Ciago;46.089243;11.004839;0
899;Margone. Bivio;46.067428;10.97374;0
900;Ranzo;46.06411;10.942538;0
901;Margone;46.068219;10.963861;0
903;Ciago. Sp. 18 Civ.1;46.089161;11.008005;0
905;Margone. Bivio;46.06794;10.97381;0
906;Lon. Rist. Fior di Roccia;46.084858;10.991603;0
909;Borgo Valsugana-C.Intermodale;46.052462;11.463491;0
910;Borgo V. Ospedale;46.056442;11.464237;0
911;Borgo V. Valli;46.055485;11.469818;0
912;Castelnuovo-Malerba;46.053808;11.481141;0
913;Castelnuovo;46.052199;11.494275;0
914;Strigno. Staz. Fs;46.051476;11.514732;0
915;Agnedo-Incrocio;46.051002;11.525005;0
916;Agnedo;46.052518;11.528678;0
917;Agnedo-Via Per Ospedaletto;46.048289;11.531298;0
918;Agnedo-Via Per Ospedaletto 8;46.046838;11.542283;0
919;Ospedaletto;46.044853;11.550779;0
920;Ospedaletto. Staz. Fs;46.041592;11.548685;0
921;Ospedaletto Loc. Barricata;46.036357;11.561027;0
922;Ospedaletto-Via Pradenella;46.033872;11.573065;0
923;Tollo;46.028366;11.587733;0
924;Grigno;46.015039;11.635232;0
925;Grigno-Segheria;46.015221;11.636693;0
926;Palù di Grigno;46.007303;11.65486;0
927;Serafini;46.004041;11.6604;0
928;Belvederi di Grigno;46.001083;11.665282;0
929;Tezze. Via M.Vecchio 16;45.993793;11.670268;0
930;Tezze;45.991217;11.671729;0
931;Martincelli;45.977984;11.6808;0
932;Primolano. A. Giardino;45.965205;11.707056;0
933;Ospedaletto;46.044689;11.55096;0
934;Canezza. Bivio;46.076786;11.275859;0
935;Canezza. Loc. Molini;46.076819;11.28274;0
936;Canezza. Loc. Pinterhof;46.078875;11.28344;0
937;Frassilongo. Maso Pizzi;46.084011;11.290371;0
938;Frassilongo. Maso Molinari;46.084563;11.291105;0
939;Levico Terme Autostazione;46.010088;11.298988;0
940;Levico T. Via Avancini;46.008714;11.308624;0
941;Barco;46.004585;11.335615;0
942;Levico T. Via Rovigo;46.009119;11.308641;0
943;Regnana Biv.-Dopo A.Costalta;46.159985;11.300167;0
944;Regnana. Via Redebus 9;46.156252;11.308979;0
945;Regnana;46.154105;11.309898;0
946;Borgo V. Sp.40;46.051475;11.456462;0
947;Olle. Trattoria Alla Croce;46.041592;11.460244;0
948;Olle. Via Del Boaletto;46.040763;11.465104;0
949;Olle;46.04081;11.464159;0
950;Pergine V.-Via Rosmini 19;46.060946;11.232464;0
951;Costasavina;46.058111;11.213978;0
952;Fornaci di Roncogno;46.06407;11.224108;0
953;Roncogno;46.069355;11.207316;0
954;Maso Colpi. Bivio Via Tiglio;45.99767;11.318194;0
955;Maso Colpi. Bivio;45.995465;11.319321;0
956;S.Giuliana. Civ.41;45.993091;11.31189;0
957;S. Giuliana;45.991576;11.31512;0
958;S. Mauro;46.125272;11.223913;0
959;Valcava;46.206287;11.311965;0
960;Svaldi;46.17008;11.301638;0
961;Ponte Fersina;46.069817;11.223408;0
962;Pergine V. Viale Dante;46.065909;11.228113;0
963;Masetti. Strada Provinciale;46.052648;11.249263;0
965;Levico T. Alb.Miralago;46.014469;11.294589;0
966;Levico Terme Cimitero;46.008857;11.316259;0
967;Levico T. Sp.228;46.016488;11.330911;0
968;Campiello di Levico;46.019578;11.356675;0
969;Novaledo;46.022214;11.36607;0
970;Novaledo-Via Roati;46.027413;11.374062;0
971;Novaledo-Loc.Campregher;46.029342;11.382788;0
972;Marter-Loc.Angeli;46.030566;11.388358;0
973;Marter. Autoespresso;46.034105;11.394313;0
974;Roncegno. Via Ciocca;46.044669;11.406874;0
975;Roncegno Terme;46.049672;11.41117;0
976;Roncegno. Centro Polisportivo;46.049009;11.421463;0
977;Borgo V. Staz. Fs;46.051443;11.45441;0
978;Scurelle;46.06506;11.50667;0
979;Scurelle-Via 15 Agosto;46.062962;11.514488;0
980;Villa;46.057747;11.51977;0
981;Strigno-Bivio Ivano Fracena;46.06156;11.523759;0
983;Tomaselli;46.068814;11.528254;0
984;Tomaselli-Bivio Latini;46.071156;11.536714;0
985;Bieno-Via Bettega;46.075322;11.540811;0
986;Bieno-Via Lusumina;46.084132;11.550564;0
987;Bieno;46.08027;11.55383;0
988;Bieno-Via Roma;46.081289;11.558986;0
989;Pradellano;46.079568;11.577668;0
990;Pradellano-Al Lago;46.076088;11.588451;0
991;Pieve Tesino-Passo Forcella;46.070958;11.592243;0
992;Pieve Tesino. Case Itea;46.068563;11.605517;0
993;Cinte Tesino Bivio;46.066535;11.60762;0
994;Cinte Tesino-Stab.Bailo;46.063237;11.609766;0
996;Cinte Tesino;46.057647;11.613701;0
998;Pieve Tesino;46.068075;11.60993;0
999;Castello T.-Loc. Molini;46.070759;11.622031;0
1000;Castello T. Distributore;46.068608;11.625938;0
1001;Castello T.-Via Baili;46.064293;11.628875;0
1002;Castello Tesino;46.064875;11.633289;0
1003;Pergine V. Bivio Susà;46.057686;11.237137;0
1004;Pergine. Via Al Lago;46.05493;11.235854;0
1005;S.Cristoforo Al Lago;46.038779;11.233499;0
1006;Valcanover;46.026717;11.22925;0
1007;Valcanover. Happy Days;46.016395;11.23423;0
1008;Calceranica. Via Donegani;46.006595;11.241043;0
1009;Calceranica Al Lago;46.003914;11.24329;0
1010;Caldonazzo. Via Marconi;45.994598;11.256976;0
1011;Caldonazzo;45.993374;11.260638;0
1012;Caldonazzo. Via Roma;45.994693;11.271258;0
1013;Caldonazzo. Sp. Civ.85/B;45.998137;11.279591;0
1014;Levico T. Rist. Brenta;46.006388;11.291846;0
1015;Levico T. Rist.Brenta;46.006545;11.291889;0
1016;Caldonazzo;45.993611;11.260692;0
1017;Caldonazzo. Via Marconi;45.995309;11.256566;0
1018;Calceranica Al Lago;46.006129;11.241411;0
1019;Valcanover;46.027391;11.229316;0
1020;S.Cristoforo Al Lago;46.038969;11.233974;0
1021;Pergine V. Via Al Lago;46.053383;11.235378;0
1022;S.Cristoforo. Bivio Darsena;46.03989;11.239806;0
1023;Ischia. Alle Terrazze;46.012668;11.261716;0
1024;Brenta Bivio;46.004685;11.274358;0
1025;Brenta Bivio;46.004647;11.274912;0
1026;Ischia. Alle Terrazze;46.014089;11.260418;0
1028;Pergine V. P.Gavazzi;46.061539;11.237582;0
1029;Roveda. Bivio;46.086444;11.293806;0
1030;Frassilongo;46.089504;11.297428;0
1031;Frassilongo. Maso Doss Hecchi;46.092489;11.302717;0
1032;Frassilongo. Maso Puech;46.094065;11.304203;0
1033;Fierozzo. Loc. Gaigheri;46.096615;11.311679;0
1034;S.Francesco;46.100364;11.310537;0
1035;S. Felice Fierozzo;46.11116;11.318511;0
1037;Pergine V. Via Regensburger;46.064433;11.242024;0
1038;Pergine V. Regensb/Bellini;46.067888;11.239686;0
1039;Casalino. Stadio Ghiaccio;46.072184;11.235638;0
1040;Casalino;46.073687;11.230353;0
1041;Vigalzano;46.076932;11.228469;0
1042;Vigalzano. Via Del Sgualdi;46.07979;11.226829;0
1043;Canzolino. Via Pianezze;46.081872;11.222565;0
1044;Canzolino. Scuole;46.083822;11.219082;0
1046;Madrano. Albergo;46.085561;11.21496;0
1048;S.Martino di Castrozza;46.262155;11.80428;0
1049;S.Martino di C. Htl Cristallo;46.258682;11.802416;0
1050;Impianti Tognola;46.254707;11.800059;0
1051;Valmesta;46.226903;11.808954;0
1052;Siror. Nolesca;46.189812;11.825374;0
1053;Siror;46.187091;11.830574;0
1054;Tressane;46.179404;11.832395;0
1055;Fiera di P. Via Roma 2;46.177619;11.831448;0
1056;Fiera di Primiero;46.174314;11.828596;0
1057;Transacqua. Viale Piave 129;46.171332;11.824349;0
1058;Sorive;46.160057;11.819873;0
1059;Mezzano. Salgetti;46.156245;11.814588;0
1060;Mezzano;46.154594;11.805969;0
1061;Imer. Via Nazionale 1;46.15203;11.800775;0
1062;Imer;46.150665;11.794425;0
1063;Masi di Imer;46.145287;11.785762;0
1064;S.Silvestro;46.131493;11.768948;0
1065;Pontet;46.106843;11.774053;0
1066;Port;46.0924;11.761685;0
1067;Val Rosna;46.083783;11.764424;0
1069;Ponte Oltra;46.060537;11.7632;0
1070;Fontane di Lamon;46.036419;11.761568;0
1071;Ponte Serra;46.029635;11.762561;0
1072;Fonzaso. Pedesalto;46.021119;11.781456;0
1073;Fonzaso;46.016527;11.802215;0
1074;Arten;46.008261;11.831183;0
1075;S.Lucia;46.003162;11.840778;0
1076;Feltre. Gel. La Zuecca;46.019147;11.893482;0
1078;Feltre. Ospedale;46.021857;11.908003;0
1079;Feltre. Staz. Fs;46.012752;11.910845;0
1080;Feltre-Staz. Fs;46.012495;11.910299;0
1081;S.Lucia;46.003278;11.840809;0
1082;Arten;46.008711;11.831529;0
1083;Ponte Oltra;46.060444;11.76255;0
1085;Masi di Imer;46.14537;11.786076;0
1087;Imer;46.150564;11.79451;0
1088;Mezzano;46.154453;11.806208;0
1089;Mezzano. Salgetti;46.156401;11.815192;0
1090;Siror;46.186858;11.83037;0
1091;Impianti Tognola;46.254567;11.800636;0
1092;S.Martino di C. Htl Cristallo;46.258587;11.802593;0
1093;Canal S. Bovo;46.154986;11.733008;0
1094;Canal S.Bovo. Somprà;46.159544;11.727574;0
1095;Pianazzi Bivio;46.162107;11.722753;0
1096;Ronco Fosse;46.153343;11.719639;0
1097;Ronco. Bivio Pugnai;46.149556;11.719945;0
1098;Ronco. Bivio Gasperoi;46.141881;11.717184;0
1099;Ronco Chiesa;46.141564;11.714631;0
1100;Povo-Mesiano;46.06612;11.142769;0
1102;Caldonazzo. Staz. Fs;45.997137;11.264699;0
1103;Levico Terme. Staz. Fs;46.00588;11.305006;0
1104;Grigno. Staz. Fs;46.015365;11.624991;0
1105;Tezze. Staz. Fs;45.991177;11.669377;0
1106;Primolano. Staz. Fs;45.965665;11.701309;0
1107;Susa';46.051112;11.223536;0
1108;Trento. 3 Nov.Centros.Chiara;46.062416;11.12371;0
1109;Trento. Viale Verona;46.056379;11.128442;0
1110;Trento. Verona/S.Bart.;46.05068;11.130485;0
1111;Trento.Viale Verona Big Center;46.045792;11.13097;0
1112;Trento. Man;46.036737;11.130335;0
1113;Mattarello. Loc.Ronchi;46.017609;11.132581;0
1114;Mattarello;46.005283;11.126499;0
1115;Acquaviva;45.990248;11.122845;0
1116;Acquaviva. Pizzeria;45.980441;11.116337;0
1117;Besenello.Nord;45.945968;11.106161;0
1118;Besenello;45.942137;11.109387;0
1119;Besenello. Sud;45.937109;11.110676;0
1120;Calliano;45.934198;11.095731;0
1121;Calliano. Grafiche Manfrini;45.928836;11.09317;0
1122;Castelpietra;45.922315;11.09193;0
1123;Volano;45.91792;11.063778;0
1124;S.Ilario;45.908274;11.04055;0
1125;Rovereto V.Le Trento;45.900157;11.041996;0
1126;Rovereto. Via Manzoni;45.892473;11.038424;0
1127;Rovereto. Staz. Fs;45.890446;11.033968;0
1128;Rovereto Difr.Rist.Cristina;45.881366;11.031858;0
1129;Lizzanella;45.875635;11.031725;0
1130;Lizzanella. Alla Staffa;45.872774;11.024337;0
1131;Centro Commerciale Millenium;45.868786;11.014431;0
1132;Mori. Staz. Fs;45.861909;11.000617;0
1133;Ravazzone di Mori;45.860092;10.991289;0
1134;Molina di Mori. Via Roma129;45.856819;10.989042;0
1135;Mori. Bar Centrale;45.851605;10.978779;0
1136;Mori. Bivio Sud;45.853582;10.967511;0
1137;Mori. Difr.Discoteca Fanum;45.855024;10.946424;0
1138;Loppio;45.855726;10.929793;0
1139;Passo S.Giovanni;45.873944;10.90634;0
1140;Nago;45.878475;10.890668;0
1141;Torbole;45.871052;10.875511;0
1142;Linfano. Bivio;45.875619;10.871472;0
1143;Riva Del G. Htl Brione;45.879954;10.856248;0
1144;Riva Del G. Htl Du Lac;45.883036;10.85264;0
1145;Riva Del G. Via D.Chiesa;45.888705;10.846074;0
1146;Riva Del G.Autostazione;45.892288;10.844891;0
1147;Riva Del G. Viale Trento;45.895382;10.85006;0
1149;Riva Del G. S.Nazzaro;45.899783;10.855659;0
1150;S.Tomaso-Direz. Arco;45.902286;10.86001;0
1151;Arco. S.Caterina Eurospar;45.904792;10.864219;0
1152;Arco. Bivio Sp 36 Grazie;45.906485;10.866326;0
1153;Arco. Via S.Caterina;45.912253;10.87521;0
1154;Arco. Autostazione;45.916112;10.883;0
1155;Arco. Piazza Italia;45.919566;10.891331;0
1156;Caneve;45.916734;10.892202;0
1157;Bolognano. Bivio;45.910902;10.900308;0
1158;Bolognano;45.912063;10.901985;0
1159;Bolognano. Via Asilo;45.914057;10.902195;0
1160;Massone. Case Itea;45.921813;10.899107;0
1161;Massone;45.924014;10.898305;0
1162;S.Martino di Arco;45.924459;10.894773;0
1163;Arco. Svizzera;45.92146;10.891615;0
1165;Arco. S.Caterina Eurospar;45.904662;10.863889;0
1166;S.Tomaso-Direz. Riva;45.902907;10.861113;0
1167;Riva Del G. S.Nazzaro;45.899421;10.855183;0
1169;Riva Del G. Viale Trento;45.895389;10.850171;0
1170;Riva Del G. Viale Martiri;45.888256;10.84434;0
1171;Nago;45.878302;10.890541;0
1172;Loppio;45.85549;10.930106;0
1173;Mori. Bar Centrale;45.851608;10.978987;0
1174;Molina di Mori;45.855097;10.985452;0
1175;Ravazzone di Mori;45.858717;10.990648;0
1176;Mori. Staz. Fs;45.861821;11.000485;0
1177;Lizzanella. Bar Verona;45.872694;11.024271;0
1178;Lizzanella;45.876161;11.032029;0
1179;Rovereto. Rist.Cristina;45.88139;11.032065;0
1180;Rovereto. Staz. Fs;45.890243;11.034028;0
1181;Rovereto. V.Le Trento;45.900353;11.042121;0
1182;S. Ilario;45.908367;11.040782;0
1183;Volano;45.91775;11.063575;0
1184;Calliano;45.934013;11.096;0
1185;Besenello;45.942592;11.108639;0
1186;Besenello-Ferm. Nord;45.946016;11.106021;0
1187;Mattarello;46.005251;11.126634;0
1188;Trento. Man;46.037836;11.130483;0
1189;Trento. Ponte Cavaleggeri;46.059353;11.126294;0
1190;Trento. Via Rosmini;46.068218;11.118792;0
1191;Tonadico. Lisiera;46.181186;11.841116;0
1192;Tonadico. Centr.Castelpietra;46.184633;11.84544;0
1193;Bivio Val Canali;46.189616;11.861085;0
1194;Baita Del Vecio;46.185476;11.873967;0
1195;Passo Cereda;46.192989;11.905216;0
1196;Mis;46.20714;11.927146;0
1197;Mis di Mezzo;46.205716;11.928989;0
1198;Mis di Sotto;46.203519;11.930091;0
1199;Sagron;46.195005;11.94335;0
1200;Bellamonte. Albergo Zaluna;46.314592;11.647132;0
1201;Bellamonte;46.312914;11.662979;0
1202;Bellamonte. Htl Torretta;46.311061;11.674493;0
1203;Lago Forte Buso;46.306912;11.701279;0
1204;Paneveggio;46.306448;11.738906;0
1205;Paneveggio Centro Forestale;46.309544;11.748089;0
1206;Bivio Malga Juribello;46.300122;11.76351;0
1207;Malga Rolle;46.295819;11.776537;0
1208;Passo Rolle;46.296308;11.787131;0
1209;Passo Rolle. Segg. Segantini;46.297696;11.788903;0
1210;Passo Rolle. Malga Fosse;46.289458;11.798572;0
1211;S.Martino di C. Htl S.Martino;46.266382;11.802406;0
1212;S.Martino di C.-Im.Col Verde;46.26492;11.80421;0
1213;S.Martino di C. Htl Belvedere;46.264317;11.801826;0
1218;Paneveggio;46.306572;11.738977;0
1219;Passo Rolle. Segg.Segantini;46.297926;11.789057;0
1221;Lausen;46.150391;11.734723;0
1224;Caoria. Ex Bar Cauriol;46.19486;11.680888;0
1225;Caoria. Ponte Valsorda;46.197166;11.678888;0
1226;Caoria;46.198014;11.675727;0
1227;Lausen;46.149482;11.734704;0
1229;Bivio Prade;46.151489;11.741636;0
1230;Berni;46.156639;11.745887;0
1231;Prade;46.157317;11.740532;0
1232;Cicona;46.162909;11.744178;0
1233;Zortea;46.16272;11.750153;0
1234;Zortea. Loc. Mureri;46.164875;11.75745;0
1235;Barbine;46.15784;11.754326;0
1236;Passo Gobbera. F.Mazuca;46.150303;11.751114;0
1237;Passo Gobbera;46.148013;11.756866;0
1238;Passo Gobbera;46.147634;11.75765;0
1239;Canal S. Bovo;46.154706;11.733033;0
1240;Caoria. Ponte Valsorda;46.197184;11.678526;0
1242;Cavalese. Htl Coronelle;46.294817;11.454257;0
1243;Daiano. Parco Giochi;46.300108;11.450117;0
1244;Daiano;46.30088;11.447866;0
1245;Varena. Pizz. La Cantinetta;46.302823;11.454017;0
1246;Varena. Alb. Alpino;46.303569;11.456154;0
1247;Varena;46.305516;11.458112;0
1248;Trento. Via Valsugana;46.069121;11.136316;0
1249;Cirè;46.077707;11.205955;0
1250;Roveda. Maso Puech Pote;46.074385;11.287903;0
1251;Roveda. Maso Sroveri;46.069345;11.292389;0
1252;Roveda;46.068024;11.300338;0
1253;Roveda. Maso Tolleri;46.069282;11.299098;0
1254;Roveda. Maso Martinotti;46.071816;11.304074;0
1255;Roveda. Maso Kairo;46.071545;11.298765;0
1256;Kamauz. Maso Frunt;46.073004;11.301541;0
1257;Kamauz;46.07472;11.30216;0
1258;Canezza Rist. Al Sole;46.080111;11.275677;0
1259;Borgo Vals. Case Itea;46.058764;11.469258;0
1260;Telve;46.070438;11.47796;0
1261;Telve-Panorama;46.070381;11.483094;0
1262;Telve-Via S.Giustina;46.072705;11.484437;0
1264;Telve-Salti;46.073964;11.480754;0
1265;Ponte S.Giovanni;46.075055;11.474235;0
1266;Telve di Sopra;46.072008;11.472209;0
1267;Campestrini;46.07769;11.456855;0
1268;Torcegno. Segheria;46.074772;11.451061;0
1269;Torcegno;46.07304;11.450415;0
1270;Ronchi Valsugana;46.072601;11.43855;0
1271;Ronchi-Loc. Marchi;46.066814;11.43258;0
1272;Stauda;46.063776;11.429668;0
1273;Montebello;46.06121;11.425909;0
1274;Maso Roneri;46.059243;11.420818;0
1275;Rincheri;46.056604;11.416637;0
1277;Cinte Tesino Bivio;46.067455;11.607534;0
1457;Ora-Auer;46.348174;11.297318;0
1458;Maso Del Gobbo;46.033816;10.947741;0
1459;Pietramurata;46.017091;10.94204;0
1460;Isoletta;46.009174;10.935765;0
1461;Marocche-Pescicoltura;46.002235;10.926658;0
1462;Marocche;45.998564;10.925293;0
1463;Gaggiolo;45.993529;10.926559;0
1464;Centrale Fies;45.986449;10.92688;0
1465;Dro. Al Lago;45.982596;10.925057;0
1466;Dro Itea;45.962453;10.915976;0
1467;Dro;45.961474;10.910724;0
1468;Dro. Carabinieri;45.958516;10.906521;0
1469;Ceniga;45.951387;10.900849;0
1470;Ceniga. Bivio Sud;45.946609;10.902952;0
1471;Arco Moletta;45.931024;10.896184;0
1472;Roncegno. Chiesa;46.049713;11.40668;0
1474;S.Martino di Arco;45.924767;10.894147;0
1475;Daiano. Via Arca I;46.300321;11.445205;0
1476;Daiano. Via Arca Civ.20;46.298114;11.444155;0
1477;Carano;46.292418;11.437232;0
1479;Lago di Tesero;46.281742;11.515787;0
1480;Lago. Mobilif. De Pal;46.283987;11.521967;0
1481;Tesero. Bivio;46.285508;11.523792;0
1482;Daino;46.023308;10.943757;0
1483;Baselga di Pinè Monum.;46.130952;11.246443;0
1484;Miola;46.126783;11.246519;0
1485;Miola. St. Ghiaccio;46.125305;11.252779;0
1486;Faida-Rauta;46.112841;11.253839;0
1487;Faida;46.10969;11.251612;0
1492;Canzolino;46.083701;11.221502;0
1493;Canzolino. Htl Miralago;46.082966;11.230838;0
1494;Canzolino. Bivio Buss;46.084556;11.230762;0
1495;Riposo;46.084494;11.236934;0
1496;Montagnaga;46.098614;11.236067;0
1497;Valt;46.106818;11.236564;0
1498;Ferrari Htl Scoiattolo;46.111814;11.234194;0
1499;Ferrari;46.121679;11.239941;0
1501;Miola-Bivio Ferrari/Miola;46.124924;11.243141;0
1502;Mazzanigo;46.103798;11.188916;0
1503;S.Agnese;46.106122;11.183914;0
1507;Campo Lomaso;46.024031;10.865605;0
1508;Campo Lomaso Ii;46.021897;10.866742;0
1509;Vigo Lomaso;46.013209;10.869077;0
1510;Dasindo;46.011734;10.860499;0
1511;Stumiaga;46.007006;10.849004;0
1512;Fiavè-Caseificio;46.001943;10.846002;0
1513;Fiave';46.004318;10.842155;0
1514;Fiavè-Bar Aurora;46.001174;10.840935;0
1515;Torbiera;45.992445;10.838006;0
1516;Fiavè Pineta;45.988123;10.833075;0
1517;Ballino;45.965502;10.811511;0
1518;Lago di Tenno;45.93539;10.811878;0
1519;Ville Del Monte;45.930258;10.82241;0
1520;Ville Del Monte I;45.927398;10.825672;0
1521;Tenno;45.921138;10.831296;0
1522;Tenno. Rist. Alla Croce;45.91808;10.832839;0
1523;Cologna. Alb.Panorama;45.915367;10.847092;0
1524;Cologna;45.914858;10.842364;0
1525;Cologna. Belvedere;45.91396;10.841414;0
1526;Gavazzo;45.912491;10.840953;0
1527;Varone Cascata;45.911896;10.837379;0
1528;Gardolo. Zona Ind.Le;46.105317;11.100604;0
1530;Trento. Ospedale S.Chiara;46.058154;11.132916;0
1531;Trento. Osp. S.Chiara;46.058155;11.131195;0
1532;Trento. Ospedale S.Camillo;46.065483;11.131823;0
1534;Trento. Piazza Venezia;46.067676;11.126898;0
1535;Trento. Via Barbacovi;46.064482;11.129754;0
1536;Trento. Via M.Baldo;46.057537;11.117434;0
1538;Varone. Alberello;45.907213;10.840332;0
1539;Varone. Via Ballino 14;45.904368;10.842055;0
1540;Varone. Sc.Alberghiera;45.901914;10.844089;0
1541;Albola;45.897665;10.844128;0
1542;Riva D/Garda V.Le Dei Tigli 21;45.892365;10.842947;0
1544;Varone. Sc.Alberghiera;45.901569;10.844309;0
1545;Varone. Cascata;45.911836;10.837196;0
1546;Cologna. Alb.Panorama;45.915415;10.847129;0
1547;Ballino;45.965775;10.811607;0
1548;Torbiera;45.992713;10.838521;0
1549;Fiavè-Bar Aurora;46.001312;10.841012;0
1550;Fiave';46.004254;10.842192;0
1551;Fiavè-Caseificio;46.002205;10.845754;0
1552;Stumiaga;46.007379;10.849191;0
1553;Dasindo;46.011618;10.860456;0
1554;Vigo Lomaso;46.013241;10.869088;0
1555;Campo Lomaso Ii;46.021556;10.86682;0
1556;Campo Lomaso;46.023679;10.865721;0
1558;Cares;46.03289;10.863774;0
1559;Comighello;46.030953;10.851465;0
1560;Sesto Bivio;46.031422;10.846945;0
1562;Villa di Bleggio;46.029306;10.841951;0
1563;Santa Croce;46.02447;10.838767;0
1564;Madice;46.023864;10.832001;0
1565;Marcè Bivio;46.01926;10.823812;0
1566;Cavrasto;46.017078;10.819853;0
1567;Balbido;46.01486;10.811036;0
1568;Rango;46.018186;10.81183;0
1569;Cavaione;46.022569;10.819802;0
1570;Marazzone;46.026892;10.820733;0
1571;Larido;46.02869;10.823712;0
1572;Bivedo;46.028737;10.826648;0
1573;Tione. Hotel Milano;46.029135;10.72374;0
1574;Polin;46.026823;10.720089;0
1575;Breguzzo-Loc. Petò;46.018712;10.711182;0
1576;Breguzzo-Corè;46.014462;10.707679;0
1577;Breguzzo;46.009293;10.699434;0
1578;Breguzzo-Hotel Carlone;46.006213;10.697764;0
1579;Bondo;46.000241;10.692875;0
1580;Pra' di Bondo;45.996291;10.690679;0
1581;Prà di Bondo-Falegnameria;45.990777;10.68558;0
1582;Roncone;45.983561;10.670694;0
1583;Fontanedo;45.979181;10.666826;0
1584;Lardaro;45.96938;10.660892;0
1585;Forti di Lardaro;45.962752;10.658038;0
1586;Strada;45.944283;10.642771;0
1587;Pieve di Bono;45.938969;10.638638;0
1588;Agrone;45.954528;10.650078;0
1589;Pieve di Bono. Tratt.Borel;45.935768;10.639059;0
1592;Cologna di P.Bono;45.931354;10.637449;0
1593;Cimego. Centrale Enel;45.924617;10.632708;0
1594;Ponte Cimego;45.915355;10.621384;0
1595;Cimego;45.911925;10.6144;0
1596;Cimego Quartinago;45.91062;10.611835;0
1597;Cimego-Bar Porte;45.904467;10.608408;0
1598;Condino. Alb.Condino;45.891405;10.60156;0
1599;Condino;45.88902;10.59961;0
1600;Condino. Case Itea;45.884991;10.596494;0
1601;Condino. Cartiere;45.880387;10.592588;0
1602;Condino. Carpenteria;45.874622;10.588411;0
1603;Ca' Rossa. Dfr.Bar Ristoro;45.854843;10.566903;0
1604;Storo-Hotel Al Melograno;45.850409;10.57488;0
1605;Storo;45.848807;10.578087;0
1606;Storo-Al Melograno;45.85017;10.575221;0
1608;Ca' Rossa;45.852439;10.565999;0
1609;Darzo-Stork Club;45.849191;10.55967;0
1610;Darzo;45.841239;10.549703;0
1611;Darzo-Zona Ind.Le;45.834352;10.542858;0
1612;Lodrone;45.829191;10.535457;0
1613;Ponte Caffaro Bivio;45.825167;10.530744;0
1614;Ponte Caffaro-Mobilif.;45.820922;10.539249;0
1615;Ponte Caffaro-Pescicoltura;45.81788;10.543906;0
1616;Baitoni-Via Lago;45.810326;10.54338;0
1617;Baitoni;45.808721;10.539589;0
1618;Tione. Rist.Pellegrini;46.029264;10.724132;0
1619;Polin;46.026805;10.720062;0
1620;Breguzzo;46.009867;10.7002;0
1621;Breguzzo-Hotel Carlone;46.006441;10.697512;0
1622;Bondo;46.0;10.692831;0
1623;Prà di Bondo;45.996468;10.690918;0
1624;Roncone;45.984558;10.67208;0
1625;Fontanedo;45.978897;10.666772;0
1626;Lardaro;45.969769;10.661089;0
1627;Forti di Lardaro;45.963003;10.658391;0
1628;Agrone;45.954732;10.650272;0
1629;Strada;45.944012;10.642639;0
1630;Pieve di Bono-Tratt.Borel;45.935705;10.63907;0
1631;Cologna di P.Bono;45.931271;10.637534;0
1632;Condino-Alb.Condino;45.891387;10.601534;0
1633;Condino Albergo Corona.;45.888993;10.599609;0
1634;Condino. Case Itea;45.885118;10.596701;0
1635;Condino. Cartiere;45.880369;10.592621;0
1636;Storo. Hotel Al Melograno;45.850361;10.575059;0
1637;Storo;45.848887;10.57816;0
1638;Darzo;45.84229;10.550493;0
1639;Darzo-Zona Ind.Le;45.834079;10.542729;0
1640;Lodrone;45.829322;10.5357;0
1641;Ponte Caffaro-Mobilif.;45.821141;10.538883;0
1643;Poia;46.028667;10.880069;0
1644;Godenzo;46.028751;10.883204;0
1645;Comano;46.034769;10.89102;0
1646;Godenzo;46.028886;10.883222;0
1647;Poia;46.028479;10.880065;0
1648;Lundo;46.012779;10.884052;0
1649;Villa Banale;46.046349;10.887434;0
1650;Premione-Via di Pestelan;46.047642;10.88049;0
1651;Premione;46.048272;10.874199;0
1652;Stenico-Scuola;46.04986;10.856621;0
1653;Stenico;46.05197;10.853877;0
1654;Stenico-Case Nuove;46.052156;10.861016;0
1655;Stenico-Dologno;46.053473;10.873473;0
1656;Dos Doa;46.054273;10.89755;0
1658;Sclemo-Via Dei Caputel;46.053619;10.879383;0
1659;Sclemo;46.055963;10.884039;0
1660;Tavodo;46.066323;10.892201;0
1661;Tavodo-S.Provinciale;46.064889;10.892126;0
1662;Dorsino;46.073365;10.896856;0
1663;S.Lorenzo Dorsino;46.076503;10.907302;0
1664;S.Lorenzo-Chiesa;46.076671;10.909366;0
1665;Lago Nembia;46.096096;10.932583;0
1666;Lago Nembia-Casa Enel;46.107358;10.943024;0
1669;Molveno. Centro;46.14242;10.963756;0
1670;Molveno;46.140431;10.963724;0
1671;Molveno. Htl Du Lac;46.141236;10.965604;0
1672;Molveno. Grand Htl;46.134067;10.969556;0
1673;Lago Nembia;46.095952;10.933321;0
1674;S.Lorenzo Dorsino;46.076385;10.907679;0
1675;Tavodo-Incr.S.P.;46.06476;10.892031;0
1676;Sclemo;46.055895;10.884204;0
1677;Sclemo-Via Dei Caputel;46.053762;10.879426;0
1678;Seo;46.057109;10.872921;0
1679;Dos Doa;46.054075;10.897268;0
1680;Stenico-Dologno;46.05348;10.873595;0
1681;Stenico-Case Nuove;46.052286;10.860167;0
1682;Stenico;46.051868;10.853803;0
1683;Premione;46.048262;10.874062;0
1684;Villa Banale;46.046301;10.887084;0
1688;Castel Condino;45.91632;10.602714;0
1689;Bersone;45.944015;10.633505;0
1690;Praso;45.949535;10.637414;0
1691;Daone;45.947372;10.621183;0
1692;Castelnuovo. Zanzibar;46.060202;11.490308;0
1693;Carzano;46.069841;11.493612;0
1695;Scurelle-Via Murazzo;46.069128;11.498022;0
1696;Strigno-Loc.Colle;46.067463;11.516069;0
1697;Spera;46.070412;11.508852;0
1698;Strigno-Loc. Colle;46.067494;11.515868;0
1699;Samone;46.081222;11.52194;0
1700;Riva Del G. Bivio Val Ledro;45.894755;10.842614;0
1701;Pregasina Bivio;45.864433;10.812753;0
1702;Pregasina;45.851215;10.824946;0
1703;Biacesa;45.865049;10.805388;0
1704;Prè;45.866332;10.788168;0
1705;Barcesino;45.870892;10.781511;0
1706;Molina di Ledro;45.871761;10.772215;0
1707;Molina di Ledro-Lago;45.873682;10.766712;0
1708;Mezzolago;45.881039;10.750446;0
1709;Pieve di Ledro;45.889221;10.730941;0
1710;Bezzecca. Vigili Del Fuoco;45.893203;10.723837;0
1711;Bezzecca. Scuole;45.894713;10.720104;0
1712;Locca;45.900292;10.72551;0
1713;Enguiso;45.905794;10.729219;0
1714;Lenzumo;45.912385;10.726404;0
1715;Lenzumo-Bar Taverna;45.913164;10.72846;0
1716;Enguiso;45.906;10.729023;0
1717;Locca;45.900427;10.725553;0
1719;Tiarno di Sotto. Bivio;45.893014;10.705842;0
1721;Tiarno di Sotto;45.893419;10.68673;0
1722;Tiarno di Sotto. Garage;45.892869;10.680696;0
1723;Tiarno di Sopra. Cooperativa;45.891253;10.674897;0
1724;Tiarno di Sopra;45.889929;10.671905;0
1725;Tiarno di Sopra. Mariani;45.882517;10.666038;0
1726;Ampola Agritur;45.875781;10.658551;0
1727;Tremalzo Bivio;45.86406;10.645286;0
1728;Storo Strada V.Di Ledro Civ.7;45.846511;10.582364;0
1729;Tiarno di Sopra-Mariani;45.882639;10.666287;0
1730;Tiarno di Sopra;45.890019;10.671908;0
1731;Mezzolago;45.880745;10.750804;0
1732;Molina di Ledro-Lago;45.873879;10.766534;0
1733;Molina di Ledro;45.871873;10.771779;0
1734;Barcesino;45.871071;10.779829;0
1735;Biacesa;45.864938;10.80495;0
1736;Tiarno di Sopra-Cooperativa;45.891119;10.674815;0
1737;Padergnone. Bivio;46.060261;10.992515;0
1738;Calavino;46.045571;10.98281;0
1739;Calavino. Via Battisti;46.04142;10.982351;0
1740;Madruzzo. Bivio;46.033912;10.981411;0
1741;Lasino. Pizzeria 4 Stagioni;46.024861;10.981216;0
1742;Lasino-Piazza;46.023488;10.983346;0
1743;Stravino. Loc.Berlonga;46.007748;10.981169;0
1744;Stravino;46.003193;10.98043;0
1745;Cavedine. Telsar Spa;45.997601;10.977439;0
1746;Cavedine;45.99391;10.973345;0
1747;Brusino;45.985835;10.975989;0
1748;Cavedine. Loc.Mai;45.984137;10.977891;0
1749;Vigo Cavedine. Bivio;45.978039;10.97766;0
1750;Vigo Cavedine;45.978967;10.981218;0
1752;Vigo Cavedine. Bivio;45.977948;10.977722;0
1753;Masi di Vigo Cavedine-Bivio;45.972584;10.974058;0
1754;Luch;45.96582;10.962326;0
1755;Drena;45.971088;10.944496;0
1756;Lavini di Dro;45.972772;10.934372;0
1757;Centrale di Drena;45.967116;10.928189;0
1758;Arco. Via Capitelli;45.919131;10.88004;0
1759;Arco. Ospedale;45.918801;10.876024;0
1760;Chiarano;45.918883;10.869411;0
1761;Vigne;45.919902;10.864849;0
1762;Varignano;45.918307;10.861654;0
1764;Ceole. Madonna Grazie;45.913915;10.857781;0
1765;Pasina. Bivio;45.905638;10.851483;0
1766;Arco. Ospedale;45.918838;10.875973;0
1769;Mattarello. Ex St.Vestimenta;46.000537;11.12617;0
1770;Mattarello. Ss12;46.010332;11.128948;0
1771;Romagnano-Sp 131 Km 2;46.00935;11.119326;0
1772;Romagnano-Sp131 Km 1;46.012418;11.106719;0
1773;Romagnano-Cava Lonardi;46.007833;11.107917;0
1774;Romagnano-Sp 90 Km 20;46.002046;11.104935;0
1775;Aldeno-Maso Toricella;45.991309;11.097813;0
1776;Aldeno-Cimitero;45.982519;11.09248;0
1777;Aldeno;45.976959;11.091823;0
1779;Trento.Via S.Severino;46.051021;11.111587;0
1780;Ravina. Via Del Ponte;46.042891;11.111776;0
1781;Ravina;46.037617;11.114121;0
1782;Romagnano. Bivio;46.014855;11.106838;0
1783;Aldeno-Loc. Dossi;45.973211;11.085159;0
1784;Aldeno-Loc. Ciausa;45.975689;11.083535;0
1785;S. Giorgio di Cimone;45.975508;11.079655;0
1786;Covelo di Cimone;45.979308;11.070636;0
1787;Covelo-Fam Cooperativa;45.97846;11.06776;0
1788;Cimone-Loc. Battistoni;45.977955;11.064836;0
1789;Cimone;45.978318;11.066139;0
1790;Cimone. Bivio Pietra;45.981119;11.068556;0
1791;Cimoneri;45.984459;11.072221;0
1792;Gazi;45.98325;11.075581;0
1793;Garniga Terme-Loc. Zobbio;45.990055;11.08348;0
1794;Garniga Terme;46.001406;11.085869;0
1795;Garniga-Piazza Lago;46.004809;11.085837;0
1796;Garniga Vecchia-Case di Sotto;46.012363;11.078789;0
1798;Garniga Vecchia;46.013523;11.083561;0
1799;Romagnano. Bivio;46.016038;11.107802;0
1800;Ravina. Bivio;46.037512;11.114093;0
1801;Trento. Tangenziale;46.047754;11.113561;0
1803;Serso;46.074834;11.253089;0
1804;Viarago. Via Delle Miniere;46.082001;11.268848;0
1806;Viarago;46.079812;11.262165;0
1807;Trento. V. S.Francesco;46.067015;11.126392;0
1808;Trento. Piazza Vicenza;46.062178;11.132901;0
1811;S.Rocco. Maso;46.026388;11.145845;0
1812;Pianizza;46.017145;11.144854;0
1814;"Valsorda ""Loc. Brusafer""";46.006315;11.16359;0
1817;Vigolo Vattaro;46.003943;11.195916;0
1818;Bosentino. Loc.Mandola;46.000373;11.216258;0
1819;Bosentino;46.001471;11.223212;0
1820;Bosentino. Loc.Mandola;46.000566;11.216059;0
