stop_id;stop_name;latitude;longitude;wheelchair_boarding
u_1;Baselga Del Bondone;46.078354;11.047183;2
u_2;Baselga Del Bondone;46.078528;11.047586;1
u_3;Belvedere;46.044409;11.105369;0
u_4;Lamar Ponte Avisio;46.134568;11.111001;1
u_5;Sp 85 Bivio Sopramonte;46.085069;11.069564;2
u_7;Maso Bolleri;46.102457;11.124144;2
u_8;Maso Bolleri;46.102269;11.123991;2
u_9;Borino;46.067127;11.165537;1
u_10;Cadine Strada Gardesana;46.088578;11.065061;1
u_11;Cadine Strada Gardesana;46.088767;11.064526;1
u_12;Canova Paludi;46.099273;11.109269;1
u_13;"Gardolo ""Materna Paludi""";46.103917;11.108166;2
u_15;Asiago S.Bartolameo;46.047706;11.137591;1
u_17;"Cognola ""Toresela""";46.07889;11.153522;2
u_18;"Cognola ""Toresela""";46.078916;11.154062;2
u_19;Cognola Bivio Civezzano;46.080507;11.158307;2
u_20;Cognola Bivio Civezzano;46.080506;11.158409;2
u_21;"Cognola ""Centro Civico""";46.07644;11.141608;1
u_22;Cognola Grezoni;46.075937;11.146884;2
u_23;Cognola Grezoni;46.075967;11.14658;2
u_24;San Vito;46.075378;11.139504;1
u_25;Cognola S.Vito;46.075681;11.14077;2
u_26;Cognola S.Vito;46.075653;11.141776;2
u_27;San Vito;46.075399;11.13889;1
u_28;"Cognola ""Scuole""";46.075713;11.144004;2
u_29;"Cognola ""Scuole""";46.075819;11.144105;2
u_30;"Cognola Alla Veduta ""Roza""";46.077643;11.151166;1
u_31;"Cognola Alla Veduta ""Roza""";46.078022;11.151578;2
u_32;"Brescia ""Villa Salvotti""";46.076115;11.101057;2
u_37;Degli Alpini Oberziner;46.079109;11.118075;2
u_38;Cortesano;46.124661;11.133726;0
u_39;Vigo Meano Alle Gorghe;46.129695;11.134602;1
u_40;Vigo Meano Alle Gorghe;46.129572;11.134665;2
u_43;Forte Bus De Vela;46.085345;11.069798;0
u_46;"Gabbiolo ""Campo Sportivo""";46.055301;11.14899;1
u_47;"Gabbiolo ""Campo Sportivo""";46.055279;11.148843;1
u_48;Sp 76 Carpenedi;46.117667;11.110047;2
u_49;Sp 76 Carpenedi;46.117278;11.108621;2
u_50;Gardolo S.Anna;46.111157;11.109534;1
u_51;Gardolo S.Anna;46.111087;11.109494;1
u_52;Gardolo P.Le Neufahrn Sud;46.106607;11.111622;1
u_53;Gardolo P.Le Neufahrn Nord;46.106673;11.11158;1
u_54;Gardolo Piazza;46.108364;11.111681;1
u_55;Gardolo Piazza;46.108465;11.111514;2
u_56;Canova Aichner;46.101923;11.103255;2
u_57;Canova Via Della Canova;46.100323;11.106659;1
u_58;Gardolo Don Milani 8 Marzo;46.103947;11.117561;2
u_59;"Gardolo D.Milani ""Piscina""";46.10671;11.114353;2
u_60;"Gardolo D.Milani ""Piscina""";46.106764;11.114361;2
u_61;Gardolo Don Milani 8 Marzo;46.104154;11.117338;2
u_62;Gardolo S.Anna Carpenedi;46.113334;11.107735;1
u_63;Gardolo S.Anna Carpenedi;46.113375;11.107612;1
u_64;Gardolo Svincolo Ss.12;46.106196;11.109014;1
u_65;Gazzadina Strada Vecchia;46.13011;11.126402;2
u_66;Gazzadina Al Pontat;46.128896;11.128728;2
u_67;Gazzadina Al Pontat;46.128751;11.129085;2
u_68;Gazzadina Strada Vecchia;46.130171;11.126098;2
u_69;Grotta Piazza;46.045775;11.151173;2
u_70;Grotta Bindesi;46.043306;11.151756;2
u_71;Grotta Bindesi;46.043679;11.151494;2
u_72;"Ss 12 ""Zona Ind.Le Ftm""";46.119198;11.106145;2
u_73;"Lamar ""Ftm""";46.125847;11.107861;2
u_74;"Lamar ""Ftm""";46.125967;11.107596;2
u_75;"Lamar ""Sottostazione Enel""";46.129144;11.109752;2
u_76;Largo Sauro;46.074753;11.125004;0
u_77;Lavis Nazionale;46.13858;11.109069;2
u_78;Lavis Piazza Caduti;46.138061;11.115898;2
u_79;"Lavis ""Municipio""";46.139289;11.112161;2
u_80;Lavis Rosmini Segantini;46.142225;11.108496;1
u_85;Centochiavi Dalla Fior;46.094565;11.120643;2
u_86;Centochiavi Chiocchetti;46.093919;11.120723;2
u_87;"Melta ""Case Itea""";46.102356;11.118127;1
u_88;Parco di Melta;46.097301;11.119758;0
u_89;Melta Centro;46.099084;11.119185;2
u_90;Melta Centro;46.100097;11.118761;1
u_91;Parco di Melta;46.097222;11.119861;0
u_92;"Bettini ""Madonna Bianca""";46.04238;11.132874;2
u_93;"Stella ""S.Gaetano""";46.036419;11.13043;2
u_94;"Ss 12 ""Casteller""";46.025382;11.132726;2
u_95;"Ss 12 ""Casteller""";46.025655;11.132788;2
u_96;"Madonna Bianca ""S.Gaetano""";46.037978;11.13066;1
u_97;Stella Marighetto;46.03424;11.131449;1
u_98;"Madonna Bianca ""Man""";46.040233;11.13044;2
u_99;"Ss 12 ""Le Caverne""";46.031037;11.132709;2
u_100;"Ss 12 ""Le Caverne""";46.030059;11.132908;1
u_101;Martignano Formigheta;46.089145;11.133132;1
u_102;Martignano Formigheta;46.088977;11.133177;1
u_103;"Martignano ""Chiesa""";46.088719;11.130593;2
u_104;"Sp 131 ""Maso Pradiscola""";46.083248;11.135662;2
u_105;"Sp 131 ""Maso Pradiscola""";46.083257;11.135788;1
u_106;Martignano P.Zza Menghin;46.090133;11.131586;2
u_107;Martignano P.Zza Menghin;46.090206;11.131471;2
u_108;Martignano Piazza Canopi;46.089258;11.130976;1
u_109;"Sp 131 ""Res. Silvana""";46.09764;11.126986;2
u_110;"Sp 131 ""Res. Silvana""";46.097687;11.12683;2
u_111;Martignano Ai Bolleri;46.094528;11.130103;2
u_112;Martignano Ai Bolleri;46.094843;11.129425;2
u_113;"Sopramonte ""Maso Banal""";46.069001;11.063551;2
u_115;Sp 131 Al Maso Specchio;46.10449;11.123519;2
u_116;Sp 131 Al Maso Specchio;46.104411;11.123396;2
u_117;"Ravina ""Maso Stella""";46.032327;11.112713;2
u_118;"Ravina ""Maso Stella""";46.032559;11.112917;2
u_119;Mattarello Piazza Perini;46.00691;11.128386;2
u_120;Mattarello Via Nazionale;46.012398;11.1306;1
u_121;Mattarello Via Nazionale;46.011656;11.130383;2
u_122;Mattarello Pomeranos;46.013587;11.131547;1
u_123;"Mattarello ""Ronchi""";46.017229;11.132453;2
u_124;"Mattarello ""Ronchi""";46.017316;11.132591;2
u_125;Mattarello S.Leonardo;46.006539;11.127593;2
u_127;Mattarello Catoni;46.009422;11.128968;1
u_128;Mattarello Rio Stolzano;46.002959;11.126782;2
u_129;Meano Bivio S.Lazzaro;46.128153;11.1152;2
u_130;Meano Bivio S.Lazzaro;46.127618;11.115305;2
u_131;"Sp 76 ""Piac""";46.126807;11.114628;1
u_133;"Sp 76 ""Maregioli""";46.130566;11.121651;2
u_134;"Sp 76 ""Maregioli""";46.130305;11.121329;1
u_135;"Meano ""Campo Sportivo""";46.128287;11.120321;1
u_136;"Meano ""Campo Sportivo""";46.128357;11.119865;1
u_137;"Meano ""Cimitero""";46.125734;11.118399;1
u_138;"Meano ""Cimitero""";46.125503;11.118357;1
u_139;"Sp 76 ""Via Rossa""";46.119793;11.111463;2
u_140;"Sp 76 ""Via Rossa""";46.11965;11.111323;2
u_141;Meano Piazza Dell'assunta;46.122693;11.116859;2
u_142;Meano Portoni;46.123508;11.116937;2
u_143;Sp 76 Dos di Lamar;46.124991;11.113511;2
u_144;Sp 76 Dos di Lamar;46.124688;11.112827;1
u_145;"Mesiano ""Fac. Ingegneria""";46.067111;11.139552;1
u_146;"Mesiano ""Fac. Ingegneria""";46.067201;11.139594;1
u_147;"Mesiano ""Stazione Fs""";46.064922;11.141795;1
u_148;"Mesiano ""Stazione Fs""";46.065054;11.141743;1
u_149;Povo Valoni;46.065426;11.146084;1
u_150;Povo Valoni;46.065751;11.146343;1
u_151;Montevaccino;46.108248;11.14267;0
u_152;Montevaccino di Sotto;46.109413;11.140128;2
u_153;Montevaccino di Sotto;46.109498;11.140077;2
u_154;"Sp 131 ""Paganin""";46.106369;11.137467;2
u_155;"Sp 131 ""Paganin""";46.106393;11.137553;2
u_156;"M.Vaccino ""Maso Librar""";46.11041;11.138496;2
u_157;"M.Vaccino ""Maso Librar""";46.110514;11.138462;2
u_158;"Ss 45 ""Montevideo""";46.080315;11.098555;2
u_159;Villazzano Valnigra;46.052083;11.146588;1
u_160;Villazzano Valnigra;46.052091;11.146369;1
u_161;Oltrecastello;46.072734;11.161992;0
u_162;F.Lli Fontana Gen. Cantore;46.076884;11.118989;1
u_163;"Piazza Dante ""Palazzo Pat""";46.072301;11.120437;1
u_165;Piazza di Fiera;46.065117;11.123289;0
u_166;S.Francesco Porta Nuova;46.06689;11.126409;1
u_167;Piazza Vicenza;46.062096;11.132883;0
u_168;Piazza Vicenza;46.062261;11.132819;0
u_171;"Brescia ""Piedicastello""";46.070815;11.113433;1
u_172;"Brescia ""Piedicastello""";46.070531;11.111447;1
u_173;Tangenziale Ovest Pezcoller;46.047882;11.11346;2
u_174;Ponte Lodovico;46.069376;11.138945;0
u_175;Ponte Lodovico;46.069514;11.140184;0
u_176;"Venezia ""Port'aquila""";46.069863;11.12824;2
u_177;"Cervara ""Port'aquila""";46.070192;11.128072;2
u_178;"Cervara ""Port'aquila""";46.070054;11.12791;1
u_179;Spré Pinara;46.06749;11.161268;1
u_180;Spré Pinara;46.067189;11.160763;1
u_181;"Povo ""Casa di Riposo""";46.065739;11.159706;1
u_182;"Povo ""Casa di Riposo""";46.065543;11.159557;1
u_183;"Povo ""Centro Civico""";46.06411;11.151992;1
u_184;"Povo ""Centro Civico""";46.06387;11.151952;2
u_185;Povo S.Agata;46.066341;11.156734;1
u_186;Povo Piazza Manci;46.065879;11.154677;1
u_187;Povo Piazza Manci;46.065939;11.154528;2
u_188;"Povo ""Fac. Scienze""";46.063156;11.150091;1
u_189;"Povo ""Fac. Scienze""";46.063282;11.150174;1
u_190;"Povo ""Polo Sociale""";46.06546;11.158013;2
u_191;"Povo ""Polo Sociale""";46.065689;11.157889;1
u_192;Ravina Masere;46.039047;11.111615;2
u_193;Ravina Masere;46.039286;11.112482;1
u_194;"Ravina ""Case Itea""";46.037329;11.114055;1
u_195;"Ravina ""Case Itea""";46.037956;11.114081;2
u_196;Ravina Chiesa;46.03773;11.107763;2
u_197;Ravina Piazza;46.038007;11.108836;1
u_198;Ravina Per Belvedere;46.04147;11.106068;2
u_199;Ravina Per Belvedere;46.040947;11.106338;1
u_200;Ravina Del Ponte;46.04289;11.111775;2
u_201;Ravina Del Ponte;46.041193;11.113139;2
u_202;"Piazza Dante ""Pal. Regione""";46.071751;11.1214;1
u_203;Romagnano Nord;46.020118;11.110866;2
u_204;Romagnano Nord;46.020034;11.110896;2
u_205;Romagnano Fontanelle;46.015241;11.107137;2
u_206;Romagnano Fontanelle;46.014549;11.106708;2
u_207;Romagnano 7 Fontane;46.014708;11.105053;2
u_208;Romagnano Piazza Condini;46.017727;11.10587;1
u_209;Romagnano Sud;46.013013;11.105542;2
u_210;Romagnano Sud;46.01213;11.104968;2
u_211;Romagnano Rimoni;46.016805;11.108328;1
u_212;Romagnano Rimoni;46.016465;11.108234;1
u_213;Roncafort;46.101226;11.101583;0
u_214;"Ss 12 ""Zona Ind.Le Ftm""";46.120375;11.105848;2
u_215;Povo Salé;46.062025;11.151318;1
u_216;Povo Salé;46.062005;11.150887;2
u_217;"Verona ""S.Bartolameo""";46.050654;11.130531;1
u_218;"Verona ""S.Bartolameo""";46.051053;11.130406;1
u_219;San Donà;46.07157;11.138357;1
u_220;"San Donà ""Chiesa""";46.072151;11.138386;2
u_222;San Donà;46.070882;11.139489;2
u_223;Lamar Sponda Trentina;46.134482;11.111548;1
u_224;San Lazzaro Ponte Avisio;46.137891;11.118434;1
u_226;San Rocco Torricelle;46.038494;11.145576;2
u_227;San Rocco Piazza;46.03626;11.146204;1
u_228;Piazza Madonna Delle Laste;46.074105;11.135279;0
u_229;Sopramonte Piazza Oveno;46.071342;11.059187;2
u_230;Sopramonte Bivio Baselga;46.07555;11.058451;2
u_231;Sopramonte Bivio Baselga;46.075587;11.058645;2
u_232;"Sopramonte ""Valle""";46.075888;11.055913;2
u_233;"Sopramonte ""Valle""";46.075948;11.05575;2
u_234;"Sopramonte ""Novai""";46.067712;11.061514;1
u_235;Sopramonte Piazza Oveno;46.071176;11.059527;2
u_236;"Sopramonte ""Bunaga""";46.069285;11.05707;1
u_237;"Sopramonte ""Bunaga""";46.069969;11.057969;1
u_238;Spini di Gardolo;46.121625;11.090102;0
u_239;Spini Linz;46.118514;11.096121;2
u_240;Spini Linz;46.118533;11.096514;2
u_241;Spini Monaco;46.11874;11.092667;2
u_242;Spini Monaco;46.118457;11.092762;2
u_243;Spré S.Lucia;46.06941;11.161625;2
u_244;Spré S.Lucia;46.069213;11.161184;2
u_245;"Sp 85 ""Soraval""";46.083412;11.064273;1
u_246;"Sp 85 ""Soraval""";46.083174;11.064109;2
u_247;"Piazza Dante ""Stazione Fs""";46.071756;11.119511;1
u_248;Tavernaro Centro;46.081409;11.154945;2
u_249;Tavernaro Centro;46.081506;11.155013;1
u_250;"Tavernaro ""Salet""";46.081825;11.157904;1
u_251;"Tavernaro ""Salet""";46.081977;11.158399;1
u_252;"Tavernaro ""Villa Clementi""";46.080892;11.157486;2
u_253;"Tavernaro ""Villa Clementi""";46.081286;11.156045;2
u_255;Vela Alla Scala;46.078838;11.103643;1
u_256;Vela Alla Scala;46.079042;11.10342;1
u_257;Gardolo 4 Nov. Canova;46.098824;11.112888;1
u_258;"Gardolo 4 Nov. ""Piscina""";46.104302;11.112908;1
u_259;Gardolo 4 Nov. Soprasasso;46.106596;11.112223;2
u_260;Adamello Gorizia;46.059886;11.132267;2
u_261;"Gardolo ""Stazione Ftm""";46.107233;11.103845;2
u_262;"M. Rossi ""Stella D.Mattino""";46.107391;11.101207;1
u_263;"M. Rossi ""Stella D.Mattino""";46.107354;11.100457;1
u_264;Al Desert Muredei;46.051317;11.117311;2
u_265;Al Desert Muredei;46.050958;11.117076;1
u_266;Al Desert Ragazzi Del '99;46.0469;11.115712;1
u_267;Al Desert Ragazzi Del '99;46.047131;11.115704;1
u_269;"Apuleio ""Case Degasperi""";46.073543;11.115546;1
u_270;"Apuleio ""Ponte S.Giorgio""";46.076349;11.114967;2
u_271;"Asiago ""Cernidor""";46.050295;11.13724;2
u_272;"Asiago ""Bellevue""";46.053211;11.136383;2
u_273;"Asiago ""Bellevue""";46.053087;11.136438;2
u_274;"Asiago ""Cernidor""";46.049614;11.137304;2
u_275;Castello Buonconsiglio;46.070388;11.126826;0
u_276;"Sanzio ""Castello""";46.071903;11.126008;1
u_277;"Barbacovi ""Itg Pozzo""";46.064413;11.12985;1
u_278;Ss 47 Muralta;46.077053;11.131799;2
u_279;Martignano Capitel;46.082249;11.127221;2
u_280;Martignano Capitel;46.08168;11.126846;1
u_281;"Bettini ""Nido Mad. Bianca""";46.040445;11.135356;1
u_282;"Bettini ""Nido Mad. Bianca""";46.040111;11.135449;1
u_283;Bezzi Filzi;46.058483;11.119231;1
u_284;"Bolghera ""S.Antonio""";46.058168;11.1312;1
u_285;"Lamar ""Sottostazione Enel""";46.131117;11.110231;2
u_286;"Ss 12 ""Pioppeto""";46.108373;11.108551;1
u_287;Ss 12 Bivio Meano;46.116068;11.106212;2
u_288;Ss 12 Canova;46.098968;11.111801;1
u_289;"Ss 12 ""Paludi""";46.102642;11.110517;2
u_290;Ss 12 Canova;46.100402;11.111543;1
u_291;"Brennero ""Bren Center""";46.091515;11.115307;1
u_292;"Brennero ""Bren Center""";46.091499;11.115601;1
u_293;Brennero Marconi;46.083031;11.120416;1
u_294;Brennero Malvasia;46.077968;11.123274;1
u_295;Brennero Marconi;46.083704;11.119817;1
u_296;"Brennero ""Magnete""";46.089309;11.116571;1
u_297;"Brennero ""Ex Scalo Filzi""";46.080071;11.122109;1
u_298;"Brennero ""Ex Scalo Filzi""";46.079302;11.12238;1
u_300;"Brennero ""Tridente""";46.08648;11.11843;1
u_301;"Brigata Acqui ""Itc Tambosi""";46.065447;11.128453;1
u_303;Roncafort Bettine;46.097554;11.102563;2
u_304;Caneppele Goio;46.094442;11.105189;2
u_305;Caneppele Goio;46.094446;11.10508;2
u_306;Cervara Cereria;46.074217;11.128394;2
u_307;Cervara Cereria;46.074148;11.128427;2
u_308;Martignano Cesarini;46.086329;11.129247;2
u_309;Martignano Cesarini;46.087089;11.129618;2
u_310;Conci De Riccabona;46.039514;11.140832;2
u_311;Conci De Riccabona;46.039362;11.140403;1
u_312;Conci Ferrovia;46.039317;11.137726;2
u_313;Conci Ferrovia;46.039824;11.137235;2
u_314;Degasperi Anna Frank;46.050201;11.124067;1
u_315;Degasperi Anna Frank;46.051157;11.122932;1
u_316;"Degasperi ""Palazzo Stella""";46.0431;11.129397;1
u_317;"Degasperi ""Palazzo Stella""";46.0429;11.129774;1
u_318;"Degasperi ""Big Center""";46.044844;11.128022;1
u_319;"Degasperi ""Big Center""";46.045018;11.128138;2
u_320;Degasperi La Clarina;46.048007;11.126793;1
u_321;Degasperi La Clarina;46.04867;11.126205;1
u_322;"Dei Mille ""Villa Igea""";46.062502;11.127822;1
u_323;"Dei Mille ""Villa Igea""";46.062524;11.127957;1
u_324;"Villazzano ""Villa De Mersi""";46.048201;11.143371;1
u_325;Martignano Costiole;46.092338;11.132591;1
u_326;Martignano Costiole;46.092456;11.1325;2
u_327;Martignano Castori;46.083464;11.127864;2
u_328;Martignano Castori;46.083438;11.127722;1
u_329;Dos Trento Mariano;46.074583;11.11342;1
u_330;Dos Trento Apuleio;46.073035;11.114821;1
u_331;Ponte S.Giorgio;46.077012;11.114109;0
u_333;F.Lli Fontana Gen. Cantore;46.077014;11.118701;1
u_334;F.Lli Fontana Oberziner;46.077447;11.11678;1
u_335;Fermi La Clarina;46.048694;11.129102;1
u_338;"Fogazzaro ""Piscina""";46.056256;11.130446;1
u_339;"Fogazzaro ""Piscina""";46.055999;11.129676;1
u_340;Ss 349 Pozzata;46.03951;11.144092;2
u_342;"Gandhi ""Parco Anna Frank""";46.051768;11.124369;1
u_344;"Gerola ""Ospedale S.Chiara""";46.058333;11.133082;1
u_345;Ghiaie Monte Baldo;46.056236;11.11612;2
u_346;"Ghiaie ""Giardinerie""";46.05317;11.116794;1
u_347;"Giovanelli ""Osp. S.Camillo""";46.0655;11.131873;1
u_348;Giusti Pascoli;46.060282;11.118954;1
u_349;"Giusti ""Arcivescovile""";46.061521;11.119038;1
u_350;"Gocciadoro ""Arcate""";46.054869;11.133747;1
u_351;"Gocciadoro ""Poliambulatori""";46.055632;11.132219;1
u_352;Gorizia Adamello;46.059878;11.131346;1
u_353;"Gramsci ""Materna La Clarina""";46.053331;11.125535;1
u_354;Gramsci Einaudi;46.052639;11.128171;2
u_355;Grazioli Brigata Acqui;46.067114;11.128745;1
u_356;Guardini Gilli;46.091908;11.119067;1
u_357;Guardini Gilli;46.091364;11.119265;2
u_358;"Lunelli ""Aci""";46.092684;11.119846;1
u_360;"Maccani ""Rotatoria""";46.082769;11.114889;1
u_361;Maccani Commercio;46.091766;11.10749;1
u_362;Maccani Commercio;46.091669;11.107424;1
u_363;Maccani Campotrentino;46.085714;11.112535;1
u_364;Maccani Campotrentino;46.085455;11.112658;2
u_365;Maccani Abondi;46.080884;11.116571;1
u_366;Maccani Abondi;46.080857;11.116496;1
u_368;"Maccani ""Polizia Locale""";46.089845;11.109059;1
u_369;"Maccani ""Polizia Locale""";46.090707;11.10823;1
u_370;"Maccani ""Rotatoria""";46.082986;11.114802;1
u_371;"Maccani ""Ex Sloi""";46.087967;11.110639;1
u_372;"Maccani ""Ex Sloi""";46.087889;11.110606;1
u_374;Marconi Solteri;46.084415;11.121228;2
u_375;Marconi Solteri;46.084529;11.121727;1
u_376;Villazzano Marzola;46.046735;11.148768;2
u_377;Villazzano Marzola;46.046644;11.14899;2
u_378;Villazzano Giordano;46.050762;11.148486;2
u_379;Villazzano Giordano;46.050756;11.148399;2
u_380;Mattioli Vittorio Veneto;46.058788;11.122615;1
u_382;Menguzzato Al Casteller;46.038132;11.134411;2
u_383;"Menguzzato ""Centro Civico""";46.040399;11.131724;1
u_384;"Menguzzato ""Centro Civico""";46.04019;11.132068;1
u_385;Menguzzato Al Casteller;46.03806;11.134171;1
u_386;Milano A Prato;46.060778;11.127597;1
u_387;Milano A Prato;46.060738;11.127737;1
u_388;Missioni Africane;46.076647;11.128205;0
u_389;Quattro Strade;46.075498;11.128156;0
u_390;Quattro Strade;46.07627;11.128154;0
u_391;Missioni Africane;46.078522;11.12722;0
u_392;Monte Baldo Ghiaie;46.057187;11.115167;2
u_393;Muredei Prati;46.056933;11.118149;2
u_395;Muredei Benevoli;46.053262;11.118539;2
u_397;Oberziner Alpini;46.078725;11.11762;1
u_400;Pasubio Adamello;46.060039;11.133347;1
u_401;F.Lli Perini 3 Novembre;46.060865;11.124266;1
u_402;"Piave ""Parco S.Chiara""";46.064131;11.12761;2
u_403;Romagnosi Vannetti;46.072966;11.122675;1
u_404;"Rosmini ""Cimitero"" / Muse";46.064014;11.119486;1
u_405;"Rosmini ""Cimitero"" / Muse";46.063777;11.119653;1
u_406;Rosmini S.Maria Maggiore;46.067878;11.118839;1
u_407;Rosmini S.Maria Maggiore;46.068034;11.118702;1
u_408;"3 Nov. ""Centro S.Chiara""";46.062192;11.123797;1
u_409;"3 Nov. ""Centro S.Chiara""";46.062244;11.123946;1
u_410;S.Francesco Porta Nuova;46.066987;11.12623;1
u_412;S.Pio X Matteotti;46.056448;11.119846;1
u_413;S.Pio X Largo Prati;46.056778;11.119278;1
u_414;S.Pio X Benevoli;46.053943;11.120571;1
u_415;S.Pio X Benevoli;46.053836;11.120696;1
u_416;Sanseverino S.Nicolò;46.05237;11.112007;1
u_417;Sanseverino S.Nicolò;46.050945;11.111681;1
u_420;Segantini Centa;46.075533;11.122391;1
u_421;Segantini Dogana;46.074195;11.121494;1
u_422;"Solteri ""Piazzina""";46.085501;11.12256;1
u_423;"Solteri ""Piazzina""";46.085496;11.122474;2
u_424;Solteri Largaiolli;46.089979;11.120936;1
u_425;Solteri Largaiolli;46.090042;11.12082;1
u_426;"Solteri ""Nido La Trottola""";46.087949;11.121282;1
u_427;"Solteri ""Nido La Trottola""";46.087572;11.121396;1
u_428;Gardolo Soprasasso;46.105625;11.107433;2
u_429;Gardolo Soprasasso;46.105498;11.10728;1
u_430;"Gardolo ""Cimitero""";46.106424;11.105638;1
u_431;Parco Del Dos Trent;46.073335;11.107385;0
u_432;Parco Del Dos Trent;46.073141;11.107375;0
u_433;Brescia Divisioni Alpine;46.071043;11.109667;2
u_434;Brescia Divisioni Alpine;46.07096;11.109664;2
u_435;Vela S.Giorgio;46.07629;11.104958;2
u_436;Vela S.Giorgio;46.076104;11.105151;1
u_437;"Dos Trento ""Centro Sportivo""";46.075623;11.107078;2
u_438;"Dos Trento ""Centro Sportivo""";46.075279;11.107483;2
u_439;"Sp 90 ""Maso Prudenza""";46.028929;11.111593;2
u_440;"Sp 90 ""Maso Prudenza""";46.029257;11.111746;2
u_441;Maso Rossi Aichner;46.105192;11.100545;1
u_443;Torre Verde Galasso;46.070654;11.122776;2
u_444;Travai Al Nuoto / Muse;46.06455;11.120922;1
u_446;"Vittorio Veneto ""S.Giuseppe""";46.057759;11.119314;1
u_447;Vittorio Veneto Lorenzoni;46.058637;11.123793;1
u_448;Largo Prati;46.057498;11.117145;0
u_449;Largo Prati;46.057502;11.117642;0
u_450;Venezia Cave;46.06664;11.13153;2
u_451;Venezia Cave;46.066443;11.132573;2
u_452;"Venezia ""Corallo""";46.068584;11.136364;1
u_453;"Venezia ""Corallo""";46.069215;11.136423;1
u_454;Vicenza Montello;46.061688;11.135919;1
u_455;Vicenza Montello;46.061756;11.135814;1
u_456;"Zambra ""Ist. D'arte Vittoria""";46.092327;11.116446;1
u_457;Verona Fogazzaro;46.056393;11.128495;1
u_458;Verona Fogazzaro;46.05648;11.128573;1
u_459;"Verona ""Palazzo Stella""";46.043087;11.131261;1
u_460;Verona Menguzzato;46.042627;11.131436;2
u_461;"Verona ""Questura""";46.047729;11.131077;1
u_462;Verona Einaudi;46.052957;11.129723;1
u_463;Verona Einaudi;46.052827;11.129887;1
u_464;"Verona ""Questura""";46.047963;11.131182;2
u_466;"3 Nov. ""Ponte Cavalleggeri""";46.05926;11.126666;1
u_467;Vigo Meano Rio Papa;46.133407;11.132546;2
u_468;Vigo Meano Rio Papa;46.133614;11.13241;2
u_469;Vigo Meano Piazza Stainer;46.131433;11.134609;1
u_470;Vigo Meano Piazza Stainer;46.131968;11.134013;1
u_471;Gazzadina Al Molar;46.130653;11.130774;2
u_472;Gazzadina Al Molar;46.130483;11.130637;2
u_473;Villazzano Villa Belfonte;46.043566;11.149677;1
u_474;Villazzano Villa Belfonte;46.043555;11.149783;1
u_475;"Villazzano ""Villa Tambosi""";46.043932;11.140651;1
u_476;"Villazzano ""Villa Tambosi""";46.043827;11.140139;1
u_477;Villamontagna P.Predaroi;46.086121;11.160453;1
u_478;"Villamontagna ""Michei""";46.084235;11.16288;2
u_479;"Villamontagna ""Michei""";46.08452;11.163106;2
u_481;"Villazzano ""Chiesa""";46.049358;11.143947;2
u_484;Villazzano Piazza Nicolini;46.048996;11.14602;1
u_485;Villazzano Piazza Nicolini;46.049107;11.146087;1
u_486;Villazzano Banala;46.047437;11.142286;1
u_488;"Conci ""Villazzano 3""";46.041035;11.14068;1
u_490;Zell Marnighe;46.080233;11.138364;1
u_491;Zell Marnighe;46.080041;11.138755;1
u_492;"Spini ""Officine""";46.11841;11.100034;2
u_493;"Spini ""Officine""";46.118234;11.100622;2
u_494;"Spini ""Zona Ind.Le Ftm""";46.118168;11.103939;2
u_495;"Spini ""Zona Ind.Le Ftm""";46.118038;11.10365;2
u_496;Spini Klagenfurt;46.117775;11.094238;1
u_497;Spini Klagenfurt;46.117756;11.094421;1
u_524;"3 Nov. ""Ponte Cavalleggeri""";46.059396;11.126384;1
u_527;"Meano ""Centro Civico""";46.126579;11.11676;1
u_1278;Corso Bettini Liceo;45.896301;11.043306;1
u_1279;Corso Bettini Liceo;45.895162;11.043361;1
u_1280;"Corso Bettini ""Mart""";45.892943;11.043667;1
u_1281;"Corso Bettini ""Mart""";45.893097;11.043771;2
u_1282;Corso Rosmini Via Savioli;45.890979;11.038463;1
u_1283;Corso Rosmini Monumento;45.890893;11.042737;1
u_1284;Corso Rosmini Posta;45.890968;11.040933;1
u_1285;Corso Rosmini Via Savioli;45.890912;11.038264;1
u_1286;Corso Verona Ospedale;45.882264;11.040343;1
u_1287;Lizzanella Corso Verona;45.875615;11.034204;2
u_1289;Corso Verona Ospedale;45.881038;11.039613;2
u_1290;Via Vicenza Via Cartiera;45.887177;11.05054;2
u_1291;Via Vicenza Via Cartiera;45.887171;11.050971;2
u_1292;Chiusole;45.925517;11.05304;2
u_1293;Chiusole;45.925428;11.05349;2
u_1295;Costa Capolinea;45.884164;11.072955;2
u_1296;Sp.2 Loc. Beccache';45.882022;11.071445;2
u_1297;Marco Via Pinera;45.847951;11.011766;2
u_1298;Marco Centro;45.843919;11.008619;2
u_1299;Marco Chiesa;45.841814;11.007836;1
u_1300;Marco Via Alla Ghiffa;45.840134;11.009486;2
u_1301;Marco;45.83687;11.011181;0
u_1302;Marco Via Alla Ghiffa;45.8402;11.00955;2
u_1303;Marco Chiesa;45.841461;11.008369;2
u_1304;Marco Centro;45.843821;11.008624;1
u_1305;Marco Via Pinera;45.847456;11.011517;2
u_1307;Nogaredo Via Zuccate;45.912242;11.025615;2
u_1308;Nogaredo Via Zuccate;45.912297;11.025602;2
u_1309;"Nomi ""Casa di Riposo""";45.928012;11.076136;2
u_1310;Nomi Piazza Springa;45.928796;11.072447;2
u_1311;Piazzale Orsi Stazione Fs;45.890257;11.034246;1
u_1312;Stazione Fs;45.890549;11.033982;0
u_1313;Piazzale S.Giorgio Est;45.895494;11.029596;0
u_1314;Piazzale S.Giorgio Ovest;45.895553;11.028781;0
u_1315;Piazzale S.Maria Ospedale;45.883528;11.040645;1
u_1316;Piazzale S.Maria Ospedale;45.883611;11.04094;1
u_1318;Piazza Manifattura;45.883841;11.021149;0
u_1319;Piazza Manifattura;45.883941;11.0211;0
u_1322;Piazza Podestà;45.886579;11.045563;0
u_1324;Piazzo;45.92196;11.033338;1
u_1325;Piazzo;45.922086;11.033671;2
u_1326;Pomarolo Chiesa;45.926381;11.045389;2
u_1327;Pomarolo Chiesa;45.926411;11.045788;2
u_1328;Pomarolo Via Degasperi;45.926336;11.042267;2
u_1329;Pomarolo Via Degasperi;45.926273;11.04252;2
u_1331;S.Ilario Sav;45.908267;11.040545;2
u_1332;S.Ilario Via Monti;45.910928;11.041107;2
u_1333;S.Ilario Sav;45.9079;11.040546;2
u_1334;Sp.2 Loc. Beccache';45.882294;11.072418;2
u_1335;"Viale Dei Colli ""Distributore""";45.88741;11.059524;2
u_1337;"Viale Dei Colli ""Distributore""";45.887476;11.059522;2
u_1338;Sp.2 Fr. Campolongo;45.886965;11.063864;1
u_1339;Sp.2 Noriglio;45.884288;11.070321;2
u_1340;Sp.2 Noriglio;45.884322;11.07008;2
u_1341;Sp.2 Fr. Campolongo;45.886934;11.063942;1
u_1342;Noriglio Via Dei Cimbri;45.884634;11.069729;2
u_1343;Lizzana Cristo;45.8669;11.030821;2
u_1347;Lizzana Cristo;45.867194;11.030778;1
u_1348;Lizzana Scuole Medie;45.870122;11.031121;1
u_1349;Lizzana Scuole Medie;45.870153;11.031031;1
u_1350;Lizzanella Ss.12;45.875541;11.031728;2
u_1351;Lizzanella Ss.12;45.876134;11.032003;2
u_1357;Via Benacense Via Fiume;45.881902;11.038149;1
u_1358;Via Benacense Via Fiume;45.881987;11.038449;1
u_1359;Via Benacense Parco Ferrari;45.877968;11.033225;1
u_1360;Via Benacense Scuole Dante;45.879524;11.034866;1
u_1361;Via Benacense Scuole Dante;45.879687;11.035197;1
u_1362;Via Benacense Parco Ferrari;45.877967;11.033346;1
u_1363;Via Cavour Via Riva;45.88728;11.034509;1
u_1364;Via Cavour;45.887193;11.038491;0
u_1365;Via Cavour Via Riva;45.88726;11.034203;1
u_1366;Via Cavour;45.887107;11.038239;0
u_1367;Via Cesari Stazione Fs;45.89033;11.03564;2
u_1369;Via Dante Borgo S.Caterina;45.889667;11.040463;2
u_1370;Via Dante Mon. All'alpino;45.886799;11.040419;2
u_1371;Via Dante Mon. All'alpino;45.886264;11.040284;2
u_1372;Viale Dei Colli Sc. Alberghiera;45.891061;11.047352;2
u_1373;Viale Dei Colli Sc. Alberghiera;45.890999;11.047589;2
u_1374;Viale Dei Colli S.Biagio;45.890117;11.050075;2
u_1375;Viale Dei Colli S.Biagio;45.890249;11.050137;2
u_1376;Via Driopozzo Bivio Solatrix;45.899636;11.044399;2
u_1380;Via Giovannini;45.906976;11.043227;0
u_1381;Via Magazol Via Cimarosa;45.89984;11.039956;2
u_1383;"Via Manzoni ""Dolomiti En.""";45.893302;11.036155;2
u_1384;"Via Manzoni ""Dolomiti En.""";45.893257;11.036473;2
u_1385;Via Balista;45.894807;11.032744;0
u_1386;Via Balista;45.895135;11.032558;0
u_1388;Via Manzoni Via Paoli;45.892158;11.0394;1
u_1389;Via Paoli Piazza 25 Aprile;45.893125;11.040071;1
u_1391;Via Paoli;45.891405;11.040044;0
u_1392;Via Pasubio Via Unione;45.887436;11.024869;1
u_1393;Via Pasubio Viale Vittoria;45.887203;11.030676;1
u_1394;Via Pasubio Viale Vittoria;45.887291;11.030752;2
u_1395;Via Pasubio Via Unione;45.887527;11.024528;2
u_1397;Via A Prato;45.893472;11.03071;0
u_1398;Via Puccini Via Perosi;45.903744;11.04498;1
u_1399;Via Puccini Via Donizetti;45.90126;11.046191;2
u_1400;Via Pellico Brione;45.904405;11.042574;2
u_1401;Via Saibanti;45.888197;11.036753;0
u_1402;Via Saibanti;45.887981;11.036659;0
u_1404;Piazzale Orsi Ist. Veronesi;45.891409;11.03452;1
u_1405;Via Tiella;45.907639;11.043746;0
u_1408;Via Unione Scuole Degasperi;45.885193;11.023238;2
u_1409;Via Unione Scuole Degasperi;45.885611;11.023154;2
u_1410;"Via Zeni ""Meccatronica""";45.890456;11.032678;2
u_1411;"Via Zeni ""Meccatronica""";45.89097;11.03262;1
u_1412;Viale Trento Via Magazol;45.899565;11.042103;1
u_1413;Viale Trento Via Magazol;45.899753;11.04217;1
u_1414;Viale Trento Via Brione;45.901664;11.041509;1
u_1415;Viale Trento Via Brione;45.901469;11.041672;1
u_1416;Viale Trento Via Salvetti;45.906562;11.040032;2
u_1417;Viale Trento Via Salvetti;45.906461;11.040139;2
u_1418;Viale Vittoria Via Zotti;45.88536;11.025501;2
u_1419;Viale Vittoria Fucine;45.886322;11.028863;1
u_1420;Viale Vittoria Via Zotti;45.885258;11.025452;1
u_1421;Viale Vittoria Fucine;45.886323;11.029127;1
u_1422;"Ss.12 ""Rovercenter""";45.864467;11.029238;2
u_1424;Villa Lagarina Via Alpini;45.914525;11.034176;2
u_1425;Villa Lagarina Via Alpini;45.914791;11.033801;2
u_1426;Villa Lagarina Via Solari;45.917095;11.028849;1
u_1427;Villa Lagarina Via Solari;45.916967;11.028762;2
u_1429;Villa Lagarina V. Zandonai;45.912386;11.031423;2
u_1431;Via Craffonara;45.88661;11.034168;0
u_1433;Via Parteli;45.896415;11.037051;0
u_1434;Via Pasqui;45.899131;11.037382;0
u_1437;"Viale Caproni ""Sony""";45.865416;11.01079;2
u_1440;Viale Dell'industria;45.871673;11.020696;0
u_1442;"Viale Del Lavoro ""Aticarta""";45.866651;11.02347;2
u_1443;"Viale Del Lavoro ""Rovercenter""";45.863651;11.027037;2
u_1444;Via S.Maria;45.884706;11.04309;0
u_1446;Via Zotti Via Cevedale;45.885735;11.025638;1
u_1447;Via Zotti;45.886244;11.020845;0
u_1504;"Via Fornaci ""Texbond""";45.859884;11.005372;2
u_1685;Via Macello;45.894294;11.032821;0
u_2120;"Zambra ""Top Center""";46.091131;11.117806;1
u_2189;"Piazza Dante ""Dogana""";46.072531;11.119934;1
u_2213;Bivio Per Senter;45.881227;11.077484;0
u_2214;Bivio Per Senter;45.881368;11.077601;0
u_2215;Brancolino;45.902202;11.020328;2
u_2216;Brancolino;45.902262;11.020302;2
u_2217;Brancolino Sp.90;45.900676;11.02045;1
u_2218;Brancolino Sp.90;45.900782;11.020738;1
u_2219;Casa Del Falegname;45.885863;11.076374;0
u_2220;Casa Del Falegname;45.885592;11.076418;0
u_2221;Casa Nel Bosco;45.882463;11.076427;0
u_2222;Casa Nel Bosco;45.882368;11.076445;0
u_2223;Castellano Centro;45.923336;11.0078;2
u_2224;Cisterna;45.883095;11.086366;2
u_2225;Cisterna;45.88321;11.086375;2
u_2226;Cornale';45.881595;11.010857;2
u_2227;Cornale';45.8815;11.010617;2
u_2229;Folaso;45.887106;11.001157;2
u_2230;Folaso;45.887198;11.001276;2
u_2231;Isera Via Rosina;45.887495;11.010432;2
u_2232;Isera Via Rosina;45.887748;11.010732;2
u_2233;Isera Cimitero;45.888649;11.011896;2
u_2234;Isera Cimitero;45.888525;11.011727;2
u_2237;Lenzima;45.878365;10.992341;0
u_2238;Marano;45.89591;11.01556;2
u_2239;Marano;45.895781;11.015525;2
u_2240;Maso Mortal;45.882697;11.079603;2
u_2241;Maso Mortal;45.882929;11.079489;2
u_2242;Moietto;45.894924;11.085843;0
u_2244;Molina;45.85531;10.986379;2
u_2245;Mori Bar Centrale;45.851635;10.978754;2
u_2248;Mori Piazzale Kennedy;45.851649;10.979132;1
u_2249;Mori Via Don Sturzo;45.853242;10.970128;1
u_2253;Noarna;45.911054;11.012437;2
u_2254;Noarna;45.910819;11.012392;2
u_2255;Nogaredo Municipio;45.912024;11.022972;2
u_2256;Nogaredo Municipio;45.911972;11.02303;2
u_2257;Nogaredo Vignai;45.910757;11.019974;2
u_2259;Nogaredo Scuole Elementari;45.909122;11.022514;2
u_2260;Nogaredo Scuole Elementari;45.909039;11.022329;2
u_2261;Villa Lagarina Via Marconi;45.915541;11.027716;2
u_2262;Villa Lagarina Via Marconi;45.914882;11.027749;2
u_2265;Noriglio Cassa Rurale;45.883624;11.06918;2
u_2266;Noriglio Mon. Ai Caduti;45.88366;11.070394;2
u_2267;Patone;45.902576;11.000318;0
u_2268;Pedersano Capolinea;45.922601;11.020511;2
u_2271;Pedersano Centro;45.918031;11.019739;2
u_2272;Pedersano Centro;45.917944;11.019758;2
u_2273;Piazza Filzi Via Del Porto;45.884129;11.017931;1
u_2274;Ravazzone;45.85999;10.991196;2
u_2275;Mori Stazione Via Stazione;45.861992;11.000492;2
u_2276;Mori Stazione Via Stazione;45.861915;11.000478;2
u_2277;Reviano;45.891134;11.007297;2
u_2278;Reviano;45.891551;11.007123;2
u_2281;S.Ilario Iti;45.910898;11.041947;2
u_2282;S.Ilario Iti;45.909862;11.041587;2
u_2283;S.Ilario Via Stroperi;45.912522;11.043825;1
u_2284;S.Ilario Via Stroperi;45.912602;11.044046;1
u_2285;Sp.20 S.Sisinio;45.925111;11.021159;2
u_2286;Sp.20 Zisi;45.931011;11.022064;2
u_2287;Sp.20 Zisi;45.931519;11.022149;2
u_2288;Sp.20 S.Sisinio;45.925088;11.021076;2
u_2289;"Ss.240 ""Millennium Sud""";45.868636;11.014105;2
u_2291;"Ss.240 ""Millennium Sud""";45.868695;11.014031;2
u_2292;Ravazzone;45.858898;10.990652;2
u_2293;"Ss.240 ""Millennium Nord""";45.870196;11.016625;2
u_2294;"Ss.240 ""Millennium Nord""";45.870509;11.017269;2
u_2295;Saltaria;45.895289;11.067315;2
u_2296;Saltaria;45.895198;11.06739;2
u_2297;Sano;45.846311;10.95152;0
u_2298;Sasso;45.904083;11.013562;2
u_2299;Sasso;45.903968;11.013639;2
u_2300;Senter;45.877521;11.089343;0
u_2301;Tierno Via Cooperazione;45.84608;10.979238;1
u_2302;Tierno Via Battisti;45.84809;10.97817;2
u_2303;Tierno Via Terra Nera;45.848582;10.982899;1
u_2304;Toldi;45.897936;11.061771;0
u_2307;Via D.Chiesa;45.886218;11.019333;0
u_2309;Via Della Libertà;45.885111;11.017611;0
u_2310;Via Driopozzo Bivio Solatrix;45.898904;11.044437;2
u_2311;Via Fedrigotti Chiesa;45.884252;11.020443;2
u_2312;Noriglio Via Fontani;45.884407;11.06867;2
u_2318;Via Lagarina;45.910333;11.039896;0
u_2319;Via Magazol Viale Trento;45.89903;11.041963;1
u_2321;Via Lagarina;45.910851;11.03975;0
u_2322;Via Puccini Via Donizetti;45.901456;11.046258;1
u_2323;Via Puccini Via Perosi;45.904419;11.044624;1
u_2325;Noriglio Via Valteri;45.886164;11.065291;2
u_2329;Via Vicenza Via Asiago;45.885554;11.059487;2
u_2330;"Viale Caproni ""Chizzola""";45.868392;11.022253;2
u_2331;"Viale Del Lavoro ""Aticarta""";45.86612;11.024025;2
u_2332;Viale Dell'industria;45.871421;11.020859;0
u_2333;Villa Lagarina Via Magrè;45.917725;11.033251;1
u_2334;Villa Lagarina Via Magrè;45.917561;11.033477;1
u_2335;Villa Lagarina V.Segantini;45.916364;11.03423;2
u_2336;Villa Lagarina V.Segantini;45.916278;11.034103;1
u_2337;Volano Ss.12;45.917745;11.06344;2
u_2338;Volano Ss.12;45.917925;11.063894;2
u_2339;Volano Via Roma;45.917094;11.069844;1
u_2340;Volano Des Tor;45.917458;11.057496;2
u_2341;Volano Via Europa;45.91652;11.057146;2
u_2342;Zaffoni;45.89131;11.065349;2
u_2343;Zaffoni;45.891331;11.06585;2
u_2354;Via All'adige;45.888316;11.019061;0
u_2355;Pomarolo Via Rossaro;45.925699;11.047857;2
u_2356;Pomarolo Via Del Pionte;45.925151;11.048075;2
u_2359;Molini;45.91372;11.021093;2
u_2360;Lago di Cei Bellaria;45.957557;11.0323;2
u_2361;Lago di Cei;45.951116;11.02308;2
u_2362;Lago di Cei Albergo;45.948216;11.015907;2
u_2363;Sp.20 Maso Tiaf;45.936417;11.008581;2
u_2364;Sp.20 Bivio Per Bordala;45.930966;11.007169;2
u_2365;Castellano Centro;45.923288;11.007728;2
u_2367;Sp.20 Bivio Per Bordala;45.93097;11.007246;2
u_2368;Sp.20 Maso Tiaf;45.93586;11.008605;2
u_2369;Lago di Cei Capitello;45.947507;11.01499;2
u_2370;Lago di Cei;45.951215;11.023429;2
u_2372;Molini;45.91395;11.02124;2
u_2377;Sp 76 Bivio S.Lazzaro;46.129;11.115532;2
u_2380;"Trener ""3 Torri Pat""";46.095078;11.116914;2
u_2383;"Guardini ""Centochiavi""";46.092602;11.118549;1
u_2384;"Zambra ""Top Center""";46.091021;11.117999;2
u_2385;"Zambra ""Ist. D'arte Vittoria""";46.09251;11.116229;2
u_2386;"Meano ""Centro Civico""";46.12745;11.11658;1
u_2389;Centochiavi Lunelli;46.092571;11.120604;1
u_2391;Via Rovigo;45.880506;11.03807;0
u_2394;Piazza Guella;45.867289;11.03188;0
u_2395;Largo S.Floriano;45.866427;11.032708;0
u_2397;Via Cornacalda;45.866829;11.035088;0
u_2398;Via Della Cisterna;45.867868;11.034807;0
u_2404;Romagnano 7 Fontane;46.014251;11.104356;2
u_2405;Travai Piazza Fiera;46.064755;11.122318;1
u_2406;"Ghiaie ""Giardinerie""";46.052905;11.11704;1
u_2407;Ghiaie Monte Baldo;46.05639;11.116193;2
u_2408;Parcheggio Zuffo;46.074958;11.109709;0
u_2409;Cavalcavia S.Lorenzo;46.070362;11.119089;0
u_2410;Parcheggio Monte Baldo;46.057099;11.113649;0
u_2412;Piazzale A22;46.077321;11.111076;0
u_2418;"Ss 12 ""Pioppeto""";46.108607;11.108745;1
u_2419;Ss 12 S.Anna;46.112375;11.107453;1
u_2421;Via A Prato;45.893517;11.03078;0
u_2422;"Roncafort ""Asilo""";46.100975;11.101782;1
u_2423;Maso Rossi Aichner;46.105349;11.100544;1
u_2424;"S.Lorenzo ""Funivia""";46.070164;11.11674;2
u_2426;"S.Lorenzo ""Funivia""";46.070285;11.117276;1
u_2430;Sanseverino Monte Baldo;46.057726;11.112549;2
u_2435;"Brescia ""Ca Dei Gai""";46.07348;11.105332;2
u_2437;Ravina Della Croce;46.040932;11.110995;1
u_2438;Ss 12 Talvera;46.103414;11.110516;1
u_2446;"Ghiaie ""Zona Ind.Le Ftm""";46.119112;11.105325;2
u_2447;Ghiaie Salisburgo;46.123098;11.103287;2
u_2448;"Ghiaie ""Sc. Materna""";46.124688;11.099827;2
u_2449;Spini Praga;46.123637;11.097414;2
u_2453;Palazzine Maso S.Antonio;46.11507;11.101847;2
u_2454;Crosare Officina;46.110073;11.105462;2
u_2455;Crosare Parcheggio;46.107957;11.10538;2
u_2457;Gardolo Castel di Gardolo;46.113949;11.110526;2
u_2458;Gardolo Castel di Gardolo;46.113874;11.11117;2
u_2470;Jedin Sanseverino;46.051205;11.114779;2
u_2472;"Lamar ""Via Rossa""";46.121478;11.106445;2
u_2474;Via Vallunga Bivio M. Pipel;45.895183;11.0521;2
u_2475;Maso Valduga;45.899728;11.054359;2
u_2476;Bosco Della Citta';45.901507;11.055439;0
u_2477;Maso Valduga;45.899654;11.054251;2
u_2478;Via Vallunga Bivio M. Pipel;45.895148;11.051957;2
u_2481;Viale Dei Colli Via Vallunga;45.891102;11.049809;2
u_2482;Viale Dei Colli Via Vallunga;45.891319;11.049805;2
u_2483;"Sopramonte ""Campra""";46.078588;11.058123;1
u_2484;"Sopramonte ""Campra""";46.078747;11.058186;1
u_2485;"Brescia ""Ca Dei Gai""";46.073335;11.105624;2
u_2488;"Pranzelores ""Top Center""";46.089831;11.118603;1
u_2489;"Pranzelores ""Tridente""";46.086577;11.12013;1
u_2490;Povo Pantè;46.063986;11.150894;2
u_2491;Roncafort Caproni;46.100072;11.099813;1
u_2492;Roncafort Bettine;46.097604;11.102184;1
u_2494;Corso Verona Via Cainelli;45.877258;11.035978;2
u_2497;Ponte di Ravina;46.045472;11.113381;0
u_2498;Ponte di Ravina;46.04553;11.113645;0
u_2499;"Villazzano ""Chiesa""";46.049327;11.14384;1
u_2500;"Ss 45 ""Scala""";46.077263;11.099858;2
u_2501;"Sopramonte ""M.Petoci""";46.066982;11.059531;2
u_2502;Vigo Meano Don Perugini;46.132978;11.133928;2
u_2504;Mori Via Del Garda;45.851501;10.972743;2
u_2505;"Cognola ""Chiesa""";46.076338;11.141634;1
u_2506;Muralta Valsugana;46.076532;11.130338;2
u_2508;Toldi;45.897853;11.061812;0
u_2509;Costa;45.884566;11.072775;0
u_2510;Sp.2 Bivio Per Cisterna;45.881195;11.075461;2
u_2511;Isera P.Zza S.Vincenzo-O.;45.885392;11.00909;2
u_2514;Ss.240 Ponte Sull'adige;45.86312;10.997363;2
u_2515;Ss.240 Ponte Sull'adige;45.863104;10.997583;2
u_2520;Verdi Inama;46.066534;11.117868;1
u_2521;Gazzadina Le Case Nòve;46.134055;11.128326;1
u_2522;Gazzadina Del Porfido;46.130527;11.126294;1
u_2524;Cimirlo;46.067728;11.18477;0
u_2525;Eremo;46.068285;11.17864;0
u_2526;Celva;46.071795;11.176795;0
u_2527;Via Eremo;46.06784;11.175508;0
u_2528;Maso di Brenz;46.065735;11.172325;0
u_2529;Borino Civ.69;46.066021;11.168748;2
u_2530;Borino;46.067029;11.165565;2
u_2532;Borino Civ.69;46.066016;11.168863;2
u_2533;Maso di Brenz;46.065461;11.172052;0
u_2534;Via Eremo;46.067848;11.175603;0
u_2535;Eremo;46.068223;11.1787;0
u_2537;"Verona ""Big Center""";46.045701;11.130926;1
u_2538;"Verona ""Big Center""";46.045723;11.131083;1
u_2540;"Viale Caproni ""Luxottica""";45.864872;11.017777;2
u_2542;Via di Vittorio;45.863063;11.02088;0
u_2543;Villa Lagarina V. Zandonai;45.912409;11.031708;2
u_2549;"Povo ""Polo Sociale"" Cap.";46.065718;11.15801;1
u_2660;Patone Gera;45.897931;11.002032;2
u_2662;Patone Gera;45.898129;11.002109;2
u_2663;Gardolo 4 Nov. 2 Giugno;46.101135;11.112927;1
u_2664;Spini Loghét;46.120397;11.091212;1
u_2665;Spini Loghét;46.120478;11.091282;1
u_2668;"Fersina ""Zona Artigianale""";46.038346;11.124537;1
u_2669;"Fersina ""Zona Sportiva""";46.041621;11.123737;2
u_2670;Piazza Cappuccini;46.073035;11.1284;0
u_2671;Avancini Laste;46.071437;11.130726;2
u_2672;Rsa Angeli Custodi;46.069698;11.130962;0
u_2673;Giardini Collina;46.068199;11.129707;2
u_2676;Via Cittadella Via Mozart;45.901296;11.040141;1
u_2680;Gazzoletti Piazza Dante;46.071849;11.122012;1
u_2682;Povo Sommarive;46.065493;11.150401;2
u_2683;"Povo ""Polo Scientifico"" Est";46.067131;11.15051;2
u_2686;Isera P.Zza S.Vincenzo-E.;45.885395;11.009226;2
u_2688;"Villazzano ""Stazione Fs""";46.044677;11.139674;1
u_2689;"Villazzano ""Stazione Fs""";46.044632;11.139478;1
u_2699;"Ss.12 ""Rovercenter""";45.864129;11.029039;2
u_2701;Ss 349 Pozzata;46.041497;11.142601;2
u_2702;Parcheggio Ghiaie;46.038643;11.124383;0
u_2706;Via Pedroni;45.892054;11.032947;0
u_2707;"Via Unione ""Residenza Eos""";45.893575;11.027471;2
u_2710;Via Unione Scuole Filzi;45.888851;11.024409;1
u_2713;Dos Trento Mariano;46.073642;11.114545;2
u_2746;Lenzima Via Della Vittoria;45.877341;10.991795;2
u_2747;Lenzima Via Della Vittoria;45.877393;10.991516;2
u_2755;Via Baratieri;45.894959;11.040345;0
u_2757;Noriglio Mon. Ai Caduti;45.883883;11.07027;2
u_2758;Viale Vittoria Scuole Degasperi;45.884953;11.023994;1
u_2759;Via Delle Laste;46.072479;11.129844;0
u_2760;Savignano;45.938052;11.055978;0
u_2763;Gard.D.Mezzo Dos D.La Luna;46.11529;11.117253;2
u_2764;Gard.D.Mezzo Maso Garbini;46.114547;11.116633;2
u_2767;"Vigo Meano ""S.Pietro""";46.128254;11.134672;1
u_2768;Via Unione Scuole Filzi;45.8885;11.024266;2
u_2770;Via Comel;45.903978;11.042051;0
u_2775;Via Zigherane;45.879419;11.023347;0
u_2776;Via Zigherane;45.879872;11.022909;2
u_2777;Baldresca;45.880234;11.028386;0
u_2780;Ss 45 S.Giorgio;46.078559;11.099223;2
u_2782;"Spini ""Pal. Giano""";46.12167;11.095136;1
u_2783;"Spini ""Pal. Giano""";46.121606;11.095087;1
u_2784;Spini Varsavia;46.125528;11.098368;2
u_2785;Spini Varsavia;46.125825;11.098119;2
u_2786;Spini Masadori;46.119932;11.096486;1
u_2787;Spini Masadori;46.120106;11.096254;1
u_2788;Spini Bregenz;46.117063;11.092401;2
u_2789;Spini Bregenz;46.117025;11.092475;2
u_2790;"Spini ""Casa Circondariale""";46.127053;11.096713;1
u_2791;"Interporto ""Interbrennero""";46.111248;11.090882;1
u_2792;"Interporto ""Interbrennero""";46.111195;11.090792;1
u_2793;"Innsbruck ""Trentino Trasporti""";46.101861;11.094798;1
u_2794;"Innsbruck ""Trentino Trasporti""";46.102289;11.094582;1
u_2795;"Interporto ""Logistica 2""";46.106315;11.092329;1
u_2796;"Interporto ""Logistica 2""";46.106112;11.092271;1
u_2797;"Interporto ""Fercam""";46.108338;11.091621;1
u_2798;"Interporto ""Fercam""";46.108429;11.0917;1
u_2799;Spini Praga;46.123565;11.097434;2
u_2800;Pedersano;45.922485;11.020169;0
u_2801;"Vela ""Scuole S.Vigilio""";46.081347;11.102631;1
u_2802;"Villa Lagar. ""Bocciodromo""";45.920494;11.031916;2
u_2803;"Villa Lagar. ""Bocciodromo""";45.920164;11.031839;1
u_2804;"Villa Lagarina ""Al Ponte""";45.913403;11.036873;2
u_2805;"Villa Lagarina ""Al Ponte""";45.913209;11.037197;2
u_2806;"Ss.240 ""Alla Staffa""";45.872747;11.024718;2
u_2812;Castellano Don Zanolli;45.926204;11.00607;2
u_2814;Mattarello Gotarda;46.009948;11.128593;2
u_2815;Mattarello Fratte;46.005384;11.126518;2
u_2816;Via Zandonai;45.886686;11.020064;0
u_2817;Roncafort Nord;46.10353;11.100099;1
u_2820;Povo Pantè;46.06394;11.150611;2
u_2822;Mori Via Filzi;45.854297;10.972201;2
u_2824;Mori Via Terra Nera;45.850042;10.98095;2
u_2825;Via All'adige;45.888292;11.018708;0
u_2826;Mori Via Del Garda;45.85186;10.972114;2
u_2827;Via Monte Pipel;45.895169;11.05715;0
u_2828;"Interporto ""Sait""";46.113255;11.090192;1
u_2829;"Interporto ""Sait""";46.113317;11.090281;1
u_2831;Via Balista Ist. Veronesi;45.896006;11.030938;2
u_2832;Viale Vittoria Scuole Degasperi;45.88489;11.024081;1
u_2833;"Povo ""Polo Scientifico"" Ovest";46.067072;11.150437;1
u_2835;Calliano Via Marcolini;45.931762;11.092358;2
u_2836;Calliano Via Marcolini;45.931768;11.092675;2
u_2837;Volano Via Delle Ancone;45.917852;11.076416;2
u_2838;Ss.12 Fornaci;45.919361;11.085082;2
u_2839;Volano Via Roma;45.917223;11.069948;1
u_2840;Nomi Cantina Sociale;45.928305;11.074605;2
u_2841;Nogaredo Via Verdi;45.911561;11.024449;2
u_2843;Sp.20 Bivio Noarna;45.915888;11.016724;2
u_2844;Sp.20 Bivio Noarna;45.915912;11.016946;2
u_2845;Via 13 Settembre;45.908319;11.04167;0
u_2848;Campana Dei Caduti;45.874479;11.0409;0
u_2849;Marco Parco Ex De Bellat;45.843739;11.007041;2
u_2850;Marco Parco Ex De Bellat;45.84362;11.007289;2
u_2851;Marco Via S.Romedio;45.845993;11.004454;2
u_2852;Marco Via S.Romedio;45.847454;11.003501;2
u_2853;Mori Stazione;45.860779;11.001749;2
u_2854;Mori Stazione;45.860866;11.001649;2
u_2855;Via Salvetti;45.905917;11.042877;0
u_2856;Ss.12 Castel Pietra;45.921743;11.091347;2
u_2857;Ss.12 Castel Pietra;45.923644;11.092531;2
u_2858;Ss.12 Campagnole;45.928774;11.092995;2
u_2859;Ss.12 Campagnole;45.9289;11.093196;2
u_2861;Porte di Trambileno;45.883428;11.051695;2
u_2862;Porte di Trambileno;45.883552;11.051972;2
u_2863;Viale Schio;45.883663;11.043848;0
u_2864;Viale Schio;45.883793;11.043948;0
u_2865;Viale Zugna 13;45.884202;11.046711;0
u_2866;Viale Zugna 13;45.884292;11.046929;0
u_2867;Viale Zugna 48;45.884115;11.049105;0
u_2868;Viale Zugna 48;45.884311;11.049407;0
u_2869;Via Magazol Viale Trento;45.899211;11.041958;1
u_2870;"Ss.240 ""Alla Staffa""";45.872806;11.024445;2
u_2872;Rsa S.Bartolomeo;46.048622;11.134081;0
u_2873;Casette;45.880731;11.017788;0
u_2874;"Via Fornaci ""Texbond""";45.859154;11.00506;2
u_2875;"Via Fornaci ""Dana""";45.85458;11.004318;2
u_2876;"Via Fornaci ""Dana""";45.854392;11.004105;2
u_2877;"Ss.240 ""Meb""";45.867798;11.011685;2
u_2878;Ossario Castel Dante;45.871812;11.035579;0
u_2884;Via Bellini;45.899196;11.044612;0
u_2886;Via Vicenza Via Asiago;45.885264;11.060081;2
u_2887;Genovesa;45.882824;11.062596;2
u_2888;Genovesa;45.882447;11.062558;2
u_2889;Noriglio Via Jacob;45.88383;11.067469;2
u_2890;Noriglio Via Jacob;45.883735;11.067717;2
u_2891;Noriglio Parco Alle Pozze;45.88432;11.065751;2
u_2892;Nogaredo Vignai;45.910248;11.019374;2
u_2895;Cisterna Capolinea;45.883067;11.087295;2
u_2896;Noriglio Scuole Elementari;45.881841;11.068764;2
u_2897;"Sp.23 ""Nero Cubo""";45.855485;11.002055;2
u_2898;Viale Schio S.Maria;45.884669;11.043457;2
u_2899;"Via Unione ""Residenza Eos""";45.893596;11.027583;2
u_2900;Monte Ghello;45.887321;11.066213;2
u_2901;Monte Ghello;45.886975;11.066337;2
u_2902;"Viale Caproni ""Chizzola""";45.868327;11.021973;2
u_2904;"Villa Lagarina ""Poste""";45.91436;11.033091;2
u_2905;Castellano Don Zanolli;45.926214;11.005916;2
u_2906;Calliano Ss.12;45.934319;11.096026;2
u_2907;Calliano Ss.12;45.934261;11.095767;2
u_2908;Calliano Cimitero;45.936919;11.098758;2
u_2909;Besenello;45.94178;11.109958;2
u_2910;Besenello Nord;45.945755;11.106117;2
u_2911;Besenello Sud;45.937458;11.11091;2
u_2914;Noriglio Parco Alle Pozze;45.884269;11.065384;2
u_2915;Via Dell'artigiano;45.864346;11.017916;0
u_2918;Gabbiolo Capolinea;46.055543;11.149154;2
u_2919;Volano Via Spiazze;45.91568;11.051294;2
u_2922;Viale Dei Colli Bertolda;45.888472;11.051778;2
u_2923;Cadine Della Fornas;46.087128;11.068883;2
u_2924;Cadine Della Fornas;46.086991;11.069357;2
u_2925;Spini Palazzine;46.116615;11.100013;2
u_2926;Borgo S.Caterina;45.889827;11.039426;0
u_2927;"Venezia ""Port'aquila""";46.069509;11.127874;1
u_2928;Porte Chiesa;45.883426;11.053292;2
u_2929;Porte Via Al Brentegam;45.880779;11.052624;2
u_2930;Porte Via Miravalle;45.87997;11.047061;2
u_2931;Dosso;45.881347;11.054833;2
u_2932;Porte Chiesa;45.883247;11.053675;2
u_2933;Porte Via Al Brentegam;45.880888;11.052701;2
u_2934;Porte Via Miravalle;45.879896;11.046851;2
u_2935;Dosso;45.881423;11.054627;2
u_2936;Sp.89 Maso Brentegam;45.880398;11.050848;2
u_2937;Via Fornaci Via Pineta;45.864929;11.006105;2
u_2938;Via Fornaci Via Pineta;45.864743;11.005587;2
u_2939;Funivia-Staz. di Valle-Trento;46.069594;11.115698;2
u_2940;Funivia-Staz. di Monte-Sardagna;46.065986;11.102699;2
u_2945;Mattarello Rozola;46.012721;11.13216;2
u_2946;Mattarello Rozola;46.01274;11.132017;2
u_2947;Mattarello Regole;46.010984;11.13167;2
u_2948;Mattarello Regole;46.011238;11.131717;2
u_2949;"Mattarello ""Parco""";46.008686;11.131522;2
u_2950;"Mattarello ""Parco""";46.007896;11.131472;1
u_2951;"Mattarello ""Torre Franca""";46.006528;11.131035;2
u_2952;"Mattarello ""Torre Franca""";46.005877;11.129908;2
u_2953;Mattarello Ex Stazione;46.007801;11.126954;2
u_2954;Mattarello Sud;46.002725;11.12631;1
u_2957;Piazza Centa;46.076198;11.123674;0
u_2960;Cadine Voltei;46.086415;11.068176;2
u_2961;Centa Brennero;46.075624;11.123987;1
u_2962;Via Brigata Mantova;45.868249;11.036135;0
u_2963;Via Brigata Mantova;45.868273;11.036219;0
u_2964;Via Cipressi;45.870152;11.032799;0
u_2965;Stadio Quercia;45.901153;11.036354;0
u_2966;Via Tonetti;45.90278;11.037626;0
u_2968;Pomarolo S.Antonio;45.93395;11.047924;2
u_2969;Pomarolo S.Antonio;45.933737;11.047952;2
u_2970;Vigo Meano Don Perugini;46.133146;11.133777;2
u_2971;"Melta ""Case Itea""";46.10231;11.118229;1
u_2973;Piazzale Divisioni Alpine;46.071095;11.109908;1
u_2979;Via Magazol Via Cimarosa;45.899853;11.039703;2
u_2981;Isera Scuole Elementari;45.882633;11.00833;2
u_2982;"Viale Del Lavoro ""Rovercenter""";45.863793;11.026965;2
u_2983;Via Pasqui;45.899327;11.037319;0
u_2984;Via Parteli;45.895739;11.038201;0
u_2986;Via Circonvallazione;45.883352;11.038638;0
u_2987;Stadio Quercia;45.90094;11.036197;0
u_2988;Marco Nord;45.849555;11.012767;2
u_2989;Marco Nord;45.849354;11.01256;2
u_2990;Parcheggio Via Lidorno;46.033521;11.125927;0
u_2991;Parcheggio Area Camper;46.03426;11.127221;0
u_2992;Via Del Garda Via Porte Rosse;45.872791;11.028362;2
u_2993;Via Del Garda Via Porte Rosse;45.872854;11.0282;2
u_2994;Clinica Solatrix;45.897743;11.04542;0
u_2996;Via Unione Via Zotti;45.886411;11.023182;2
u_2998;Via Campagnole;45.889321;11.037107;0
u_2999;Piazza Filzi Via Del Porto;45.884014;11.018082;2
u_3000;Isera Asilo;45.884211;11.008257;2
u_3001;Via Perosi;45.904188;11.044079;0
u_3002;Villa Lagarina Sc.Medie;45.91794;11.03165;2
u_3003;Strada Degli Artiglieri;45.869867;11.036383;0
u_3004;Castellano Don Zan. Park;45.926251;11.00718;2
u_3005;Stazione Fs;45.89171;11.034206;0
u_3006;Via Benacense Scuole Ex Edili;45.880003;11.035388;2
u_3007;Isera Asilo;45.884644;11.00779;2
u_3008;Via Setaioli;45.887242;11.041458;0
u_3009;Volano Casa di Riposo;45.920404;11.067034;2
u_3010;Nogaredo Via S.Biagio;45.911889;11.025795;2
u_3011;Viale Dei Colli Campolongo;45.887912;11.057153;2
u_3012;Viale Dei Colli Campolongo;45.887952;11.057521;2
u_3014;Lavis Via Nazionale;46.138664;11.108985;0
u_3016;Lavis Piazza Grazioli;46.139472;11.111335;0
u_3017;Lavis Via Dei Colli;46.14184;11.11238;0
u_3018;Lavis Via Cembra;46.144048;11.112649;0
u_3019;Lavis Bivio Fratte;46.146836;11.111036;0
u_3020;Lavis Bivio Fratte;46.146734;11.111007;0
u_3021;Lavis Strada Fonda;46.145627;11.105818;0
u_3022;Lavis Strada Fonda;46.145301;11.106307;0
u_3023;Lavis Via Rosmini;46.142197;11.108504;0
u_3024;"Lavis ""Municipio""";46.139305;11.112131;0
u_3027;"Lavis ""Stazione Fs""";46.147934;11.097347;0
u_3028;Lavis Via Filos;46.145584;11.09729;0
u_3029;Lavis Via Filos;46.145665;11.097523;0
u_3030;Lavis Via di Vittorio 78/84;46.136413;11.086541;0
u_3031;Lavis Via di Vittorio 64;46.133537;11.087634;0
u_3032;Lavis Via di Vittorio 26;46.134301;11.093436;0
u_3033;Lavis Via Fermi;46.136341;11.093358;0
u_3034;Lavis Via di Vittorio 6;46.134621;11.097322;0
u_3035;Lavis Via Zandonai;46.138874;11.101196;0
u_3036;Pressano Piazza;46.153557;11.106927;0
u_3037;"Pressano ""Oratorio""";46.152127;11.106138;0
u_3038;Pressano Via Cl. Augusta;46.157309;11.107777;0
u_3039;Pressano Via Cl. Augusta;46.157338;11.107839;0
u_3040;Pressano Via Sant'antonio;46.154093;11.109902;0
u_3041;Pressano Via Pilati;46.15003;11.104334;0
u_3043;Nave S.Felice Maso Rover;46.161439;11.109306;0
u_3044;Nave S.Felice Maso Rover;46.161333;11.109326;0
u_3045;Nave S.Felice Zona Stuadri;46.170412;11.118105;0
u_3046;Nave S.Felice Case Tenaia;46.162483;11.110392;0
u_3047;Sorni;46.172283;11.125893;0
u_3048;Sorni Bivio;46.174864;11.122294;0
u_3049;Sorni Bivio;46.174341;11.122074;0
u_3050;Sorni Bivio Via Toresela;46.174616;11.123075;0
u_3051;Sorni Via Dalmaso;46.174676;11.124554;0
u_3052;Sorni Via Dalmaso;46.174737;11.124493;0
u_3053;Sorni Bivio Maso Zatelli;46.175439;11.125608;0
u_3054;Sorni Bivio Maso Zatelli;46.175315;11.125547;0
u_3055;Sorni Ss.12;46.174042;11.12067;0
u_3056;Maso Zatelli;46.176495;11.125399;0
u_3057;Maso Zatelli;46.176515;11.125336;0
u_3058;Maso Del Narciso;46.177635;11.12747;0
u_3059;Maso Del Narciso;46.177651;11.127542;0
u_3060;Maso Rosabel;46.175362;11.131343;0
u_3061;Maso Rosabel;46.1754;11.131366;0
u_3062;Sp.131 Bivio Laste;46.172498;11.128994;0
u_3063;Maso Panizza di Sopra;46.168742;11.125581;0
u_3064;Maso Panizza di Sopra;46.168616;11.125299;0
u_3065;Maso Zancanar;46.165226;11.121665;0
u_3066;Maso Zancanar;46.164958;11.121624;0
u_3067;Maso Poli;46.16302;11.118873;0
u_3068;Maso Poli;46.163013;11.119002;0
u_3069;Maso Luchin;46.160608;11.116311;0
u_3070;Maso Luchin;46.160585;11.116362;0
u_3071;Maso Tratta;46.159249;11.115103;0
u_3072;Maso Spon;46.159065;11.119271;0
u_3073;Maso Clinga Via Clinga;46.153691;11.110336;0
u_3074;Maso Clinga;46.152243;11.11173;0
u_3077;Maso Clinga Via Furli;46.15055;11.108069;0
u_3078;Lavis Maso Furli;46.148786;11.109659;0
u_3079;Lavis Maso Furli;46.148825;11.109738;0
u_3080;Nave S.Felice;46.164561;11.112234;0
u_3081;Maso Tratta;46.158507;11.114959;0
u_3082;Nave S.Felice;46.164589;11.112097;0
u_3083;Pressano Piazza;46.153631;11.107061;0
u_3084;Nave S.Felice Stazione Ftm;46.166718;11.113208;0
u_3085;Nave S.Felice Case Tenaia;46.162105;11.110088;0
u_3086;Sp.131 Bivio Laste;46.1731;11.129881;0
u_3087;Sorni Bivio Via Toresela;46.174356;11.122754;0
u_3088;Pedersano S.Rocco;45.919576;11.019213;2
u_3089;Pedersano S.Rocco;45.919588;11.019124;2
u_3091;"Lavis Cantina ""La-Vis""";46.137002;11.109623;1
u_3092;"Cervara ""Scalinata""";46.072081;11.128289;2
u_3094;Lavis Cimitero;46.141564;11.105781;0
u_3095;Asiago S. Bartolameo;46.047682;11.137738;1
u_3096;Vela Centro;46.082085;11.102043;2
u_3097;"Fersina ""Campi Da Tennis""";46.044632;11.12169;2
u_3098;Molina Via Roma;45.856799;10.988958;2
u_3099;Molina Ss.240;45.853729;10.981578;2
u_3100;"Lavoro E Scienza ""Buc""";46.058772;11.115079;1
u_3104;"Sanseverino ""Funivia""";46.067711;11.115188;2
u_3105;"Montegrappa ""Funivia""";46.069134;11.115398;2
u_3106;"Papiria ""Italcementi""";46.069586;11.112191;2
u_3107;Mori Via Benedetti;45.852902;10.973215;1
u_3108;"Mori ""Cimitero""";45.850804;10.976969;2
u_3109;"Albere ""Muse""";46.06269;11.113605;1
u_3110;San Lazzaro Ponte Avisio;46.136804;11.116591;1
u_3111;Lamar Sponda Trentina;46.134686;11.111923;1
u_3112;Lavis Piazza Caduti;46.138012;11.114866;2
u_3113;"Lavis ""Municipio""";46.139535;11.11194;2
u_3114;Lavis Rosmini Segantini;46.142856;11.107967;2
u_3115;Lavis Cembra;46.143221;11.106588;1
u_3116;Lavis Cembra;46.142828;11.10509;1
u_3117;"Lavis ""Cimitero""";46.141545;11.105815;1
u_3118;Lavis Stazione Ftm;46.140178;11.106532;2
u_3126;"Villa Lagarina ""Poste""";45.914132;11.032987;2
e_1;Trento. Autostazione;46.070785;11.118457;0
e_2;Trento. Solteri Bivio Ss.12;46.084046;11.119728;0
e_3;Trento. Bren Center;46.091322;11.11566;0
e_4;Lavis;46.138362;11.109135;0
e_5;S.Michele;46.193685;11.13252;0
e_6;Salorno;46.240611;11.208101;0
e_7;Laghetti;46.271949;11.23897;0
e_8;Egna-Neumarkt;46.315974;11.272446;0
e_9;Cela-Aguai Bivio;46.291366;11.418715;0
e_10;Castello di F. Via Stazione;46.28207;11.428963;0
e_11;Castello di Fiemme;46.281012;11.434818;0
e_12;Cavalese. Bivio Carano;46.287418;11.441658;0
e_13;Cavalese. Htl Garden;46.28927;11.448063;0
e_14;Cavalese. Piazza Partigiani;46.291892;11.455502;0
e_15;Cavalese. Piazza Verdi;46.290336;11.460686;0
e_16;Cavalese. Autostazione;46.287909;11.463231;0
e_17;Tesero. Giardino Dolomiti;46.292467;11.484689;0
e_18;Tesero. Loc. Piera;46.292228;11.49212;0
e_19;Tesero. Piazza Battisti;46.288879;11.510906;0
e_20;Panchia'. Casa Cantoniera;46.286998;11.5321;0
e_22;Ziano di Fiemme. Via Nazionale;46.286636;11.55967;0
e_23;Ziano di Fiemme. Roda;46.288371;11.569359;0
e_24;Predazzo. Borgo Nuovo;46.30654;11.598949;0
e_25;Predazzo. Autostazione;46.309522;11.604922;0
e_26;Predazzo. Distrib. Agip;46.31718;11.597105;0
e_27;Predazzo. Impianti Latemar;46.328662;11.600166;0
e_28;Mezzavalle;46.337924;11.610365;0
e_29;Forno;46.347286;11.625627;0
e_30;Forno. Albergo Foresta;46.354425;11.633768;0
e_31;Moena. Caserma Carabinieri;46.369234;11.652293;0
e_32;Moena. Albergo Trentino;46.372945;11.655268;0
e_34;Moena. Pezzè;46.38076;11.66557;0
e_35;Soraga. Htl Al Lago;46.392163;11.666737;0
e_36;Soraga;46.396751;11.669549;0
e_37;Vigo di Fassa. Carpe Diem;46.421412;11.676427;0
e_38;S.Giovanni. Htl Dolomiti;46.420879;11.681906;0
e_39;Pozza di Fassa;46.427263;11.682909;0
e_40;Pera di Fassa;46.435753;11.690473;0
e_41;Pera di Fassa. Al Ponte;46.441683;11.695465;0
e_42;Mazzin di Fassa;46.45796;11.701361;0
e_43;Campestrin;46.462705;11.714972;0
e_44;Fontanazzo;46.469689;11.727811;0
e_45;Campitello. Piazza;46.475648;11.740928;0
e_46;Canazei. Htl Caminetto;46.479178;11.759193;0
e_47;Canazei. Gries;46.477902;11.763957;0
e_48;Canazei. Via Pareda;46.476195;11.770866;0
e_49;Canazei. Impianti Belvedere;46.474085;11.774368;0
e_50;Canazei. Rotatoria Faloria;46.471561;11.777812;0
e_51;Alba. Htl Ariston;46.466322;11.780889;0
e_52;Alba. Via De Costa;46.461951;11.782995;0
e_53;Alba. Impianti Ciampac;46.459391;11.786084;0
e_54;Penia. Str. Pian Trevisan;46.457433;11.791831;0
e_55;Penia. Htl Panarel;46.456575;11.801529;0
e_56;Penia Alta;46.458446;11.799736;0
e_58;Penia. Htl Panarel;46.45671;11.801523;0
e_59;Penia. Str. Pian Trevisan;46.457619;11.792331;0
e_60;Alba. Impianti Ciampac;46.458437;11.789031;0
e_61;Alba. Via De Costa;46.462159;11.782943;0
e_62;Canazei. Rotatoria Faloria;46.471443;11.777931;0
e_63;Canazei. Impianti Belvedere;46.474072;11.774719;0
e_64;Canazei. Gries;46.477768;11.764654;0
e_65;Canazei. Htl Caminetto;46.479392;11.759629;0
e_66;Campitello. Piazza;46.476684;11.740902;0
e_67;Fontanazzo;46.46961;11.726986;0
e_68;Pozza di Fassa;46.427927;11.683273;0
e_69;Cavalese. Via Esterle;46.293123;11.457258;0
e_70;Cavalese. Htl Garden;46.289338;11.447858;0
e_71;Laghetti-Laag;46.272133;11.23877;0
e_72;Salorno-Salurn;46.240219;11.207185;0
e_73;Lavis;46.13704;11.109579;0
e_74;Trento. Staz. Fs;46.072601;11.120053;0
e_77;Trento. Assoc. Artigiani;46.083017;11.120408;0
e_79;Gardolo. Via Bolzano;46.10856;11.10875;0
e_80;Gardolo. Bivio Spini;46.119077;11.106058;0
e_81;Gardolo. Loc.Lamar;46.129072;11.109727;0
e_82;Lavis. Via Cembra 16;46.143209;11.106615;0
e_83;Lavis. Via Bresadola;46.143939;11.112485;0
e_84;Lavis. Via Cembra 50;46.141936;11.11444;0
e_85;Maso Franch;46.143817;11.118837;0
e_86;Mosana. Loc. Ai Castagnari;46.150493;11.125736;0
e_87;Mosana;46.1544;11.137227;0
e_88;Verla;46.157056;11.152525;0
e_89;Verla. Cantina Rossi;46.155284;11.156325;0
e_90;Valternigo;46.16079;11.158786;0
e_91;Ville di Giovo;46.165786;11.157337;0
e_92;Ville di Giovo. Maso Roncador;46.162213;11.140582;0
e_93;Passo Croce;46.161488;11.134618;0
e_94;Palu' di Giovo;46.158216;11.140399;0
e_95;Verla. Bivio;46.155899;11.160677;0
e_96;Ceola;46.159677;11.171449;0
e_97;Lisignago;46.160169;11.187697;0
e_98;Lisignago. Loc.Bedin;46.164967;11.203561;0
e_99;Cembra. Cimitero;46.17452;11.217344;0
e_100;Cembra;46.174957;11.22171;0
e_101;Fadana;46.177556;11.225067;0
e_102;Cembra. Loc.Molini;46.180272;11.228393;0
e_103;Faver Bivio;46.18096;11.231877;0
e_104;Faver;46.181717;11.23779;0
e_105;Faver. Ufficio Postale;46.183756;11.24075;0
e_106;Faver. Loc. Portegnago;46.197033;11.246629;0
e_107;Valda. Capitello;46.20707;11.262063;0
e_108;Valda;46.206785;11.266459;0
e_109;Grumes;46.221664;11.293926;0
e_110;Grauno;46.229416;11.29825;0
e_111;Capriana. Case Nuove;46.261034;11.339907;0
e_112;Capriana;46.26279;11.33945;0
e_113;Capriana. Albergo Miravalle;46.262058;11.343987;0
e_114;Carbonare-Rover;46.266759;11.35174;0
e_115;Stramentizzo. Bivio;46.266506;11.406481;0
e_116;Molina di Fiemme;46.272943;11.417691;0
e_117;Molina di F. Via Segherie;46.272417;11.424248;0
e_118;Molina di Fiemme. Chiesa;46.274183;11.416701;0
e_119;Castello di Fiemme Conc.Fiat;46.278943;11.430131;0
e_121;Castello di Fiemme;46.281234;11.434746;0
e_123;Molina di Fiemme Via Segherie;46.27241;11.424118;0
e_124;Grumes;46.221406;11.294187;0
e_125;Faver;46.18119;11.236667;0
e_126;Fadana;46.178186;11.225986;0
e_127;Cembra;46.175121;11.22204;0
e_128;Lisignago;46.160228;11.187881;0
e_129;Ceola;46.15959;11.170862;0
e_130;Verla;46.157152;11.152806;0
e_131;Lavis. Via Bresadola;46.143962;11.112741;0
e_132;Lavis. Via Cembra 16;46.142758;11.105019;0
e_133;Lamar di Gardolo. Ss.12-Ftm;46.125857;11.107857;0
e_134;Gardolo. Via Bolzano;46.108391;11.108627;0
e_135;Gardolo. Cicli Moser;46.102642;11.110465;0
e_137;Casatta Valfloriana;46.250382;11.344527;0
e_138;Barcatta;46.250423;11.349653;0
e_139;Villaggio Italo-Svizzero;46.247856;11.346655;0
e_140;Dora';46.251864;11.355629;0
e_141;Palu' di Sicina;46.256918;11.363011;0
e_142;Casanova di Sicina;46.241994;11.349804;0
e_143;Valle;46.238606;11.351276;0
e_144;Montalbiano;46.234427;11.355128;0
e_145;Sicina;46.230006;11.358746;0
e_532;Trento. Via Giusti Cimitero;46.063017;11.118982;0
e_533;Trento. Via V.Veneto;46.057701;11.119288;0
e_535;Trento. Via Lorenzoni;46.05838;11.12296;0
e_537;Trento. Via S.Francesco;46.066636;11.126199;0
e_538;Montesover;46.217085;11.327081;0
e_539;Montesover-Strada Vernera;46.218167;11.326636;0
e_540;Montesover-Strada Vernera 17;46.21739;11.32414;0
e_541;Montesover-Carrozzeria;46.215298;11.328098;0
e_542;Sveseri Bivio;46.207641;11.327802;0
e_543;Piazzoli;46.21426;11.323606;0
e_544;Facendi;46.214916;11.321416;0
e_546;Sover;46.223892;11.312413;0
e_548;Nave S.Felice;46.164603;11.112264;0
e_549;Sorni. Bivio;46.174732;11.122247;0
e_551;Sorni;46.173837;11.120534;0
e_552;Nave S.Felice;46.166611;11.112919;0
e_557;Cavalese. Case Itea;46.289446;11.469194;0
e_558;Marco di Cavalese;46.290187;11.476965;0
e_559;Milon;46.285864;11.479723;0
e_560;Masi. Campo Sportivo;46.283461;11.480803;0
e_561;Masi. Piccolo Bar;46.283362;11.483304;0
e_562;Masi di Cavalese;46.283212;11.485244;0
e_563;Masi. Via Chiesa Civ.118;46.284433;11.489103;0
e_564;Marco di Cavalese;46.290229;11.477097;0
e_565;Cavalese. Case Itea;46.289558;11.469406;0
e_566;Carano. Via Giovanelli 11;46.292293;11.442654;0
e_567;Carano. Municipio;46.292223;11.440482;0
e_568;Carano;46.291791;11.438788;0
e_569;Carano. Via Giovanelli;46.289851;11.438585;0
e_570;Carano. Garnì Belvedere;46.287394;11.43585;0
e_572;Villaggio Veronza Bv.Pizzeria;46.287844;11.428645;0
e_574;Villaggio Veronza Via Pale;46.28877;11.431444;0
e_575;V.Veronza. Htl Veronza;46.289866;11.433196;0
e_578;Trento. Via Valsugana;46.068328;11.136284;0
e_579;Ponte Alto;46.073788;11.150435;0
e_580;Pine'. Bivio;46.081906;11.194966;0
e_581;Sille;46.086064;11.202928;0
e_582;Madrano. Belvedere;46.084669;11.210385;0
e_584;Madrano;46.085925;11.214309;0
e_585;Madrano. Via Della Vizza;46.091339;11.212176;0
e_586;Nogare';46.103925;11.211295;0
e_587;S. Mauro. Bivio;46.116608;11.222359;0
e_588;Tressilla;46.128797;11.237223;0
e_589;Baselga. Municipio;46.130018;11.243837;0
e_590;Baselga di Pine'. Lago;46.135502;11.249832;0
e_591;Sternigo. Bivio;46.141639;11.257918;0
e_592;Rizzolaga;46.146548;11.264075;0
e_593;Campolongo;46.149595;11.269497;0
e_594;Piazze. Bivio;46.155325;11.277562;0
e_595;Piazze di Bedollo;46.155637;11.288073;0
e_596;Castellani-Regnana Bivio;46.15977;11.298662;0
e_597;Centrale di Bedollo;46.160829;11.302257;0
e_598;Bedollo;46.164986;11.301338;0
e_599;Bedollo. Bivio;46.170025;11.312436;0
e_600;Bedollo. Villaggio;46.17291;11.317048;0
e_601;Brusago. Via Verdi;46.175773;11.321437;0
e_602;Brusago;46.182124;11.325856;0
e_603;Brusago-Civ. 4;46.186574;11.32959;0
e_604;Brusago. Maso Gabart;46.194275;11.327783;0
e_605;Sette Fontane. Bivio;46.199009;11.327735;0
e_606;Sveseri;46.206442;11.323661;0
e_607;Bedollo;46.164987;11.301522;0
e_608;Piazze di Bedollo;46.155859;11.287329;0
e_609;Campolongo;46.149607;11.269109;0
e_610;Pine'. Bivio;46.081958;11.196437;0
e_611;Ponte Alto;46.073949;11.150313;0
e_612;Trento. Port'aquila;46.069729;11.128322;0
e_613;Trento. Via Perini;46.060824;11.124149;0
e_614;Civezzano. Centro Europa;46.083653;11.19816;0
e_615;Civezzano. Quadrivio;46.090069;11.185165;0
e_616;Civezzano;46.09187;11.18317;0
e_617;Cire'. Strada Statale;46.077144;11.204337;0
e_618;Torchio;46.090706;11.197405;0
e_619;Cogatti;46.09381;11.197011;0
e_620;Seregnano;46.094473;11.20044;0
e_621;Roverè;46.090453;11.193243;0
e_622;Bampi. Bivio;46.093748;11.190637;0
e_623;Barbaniga;46.101737;11.186336;0
e_624;S. Agnese;46.106352;11.183638;0
e_625;S.Agnese. Via Delle Scornie;46.10652;11.186155;0
e_626;Mazzanigo;46.103636;11.189191;0
e_627;Penedallo. Via Alle Praderie;46.102448;11.192425;0
e_628;Penedallo;46.101015;11.192549;0
e_629;Bosco di Civezzano;46.111066;11.170987;0
e_630;Bosco. Loc. Canova;46.113878;11.175537;0
e_632;Torchio. S.P. 71;46.091408;11.198339;0
e_633;Valle Fornace;46.111868;11.210359;0
e_634;Fornace. Bivio;46.119113;11.216113;0
e_636;Fornace;46.118059;11.208109;0
e_637;Fornace. Via Dei Pradolini 4;46.120276;11.208418;0
e_638;S.Stefano;46.128532;11.212036;0
e_639;Fornace. Maso Donati;46.12044;11.216452;0
e_640;Lases;46.143537;11.21887;0
e_641;Albiano. Via Roma Civ.35;46.143815;11.198962;0
e_642;Albiano;46.144616;11.193775;0
e_643;Albiano. Via S.Antonio;46.146255;11.190461;0
e_644;Albiano Via S.Antonio 90;46.148465;11.187402;0
e_646;Lases. Civ. 30;46.144612;11.219167;0
e_647;Lases. Loc. Ronc Del Mela;46.149543;11.221567;0
e_648;Lona. Via Provinciale;46.156074;11.230499;0
e_649;Lona;46.159058;11.233019;0
e_650;Lona. Loc. Piazzole;46.162898;11.24096;0
e_651;Sevignano;46.170788;11.247115;0
e_652;Piazzo di Segonzano. Bivio;46.180042;11.257961;0
e_653;Scancio di Segonzano;46.187469;11.258369;0
e_654;Scancio di Segonzano-Snack Bar;46.191891;11.25959;0
e_655;Scancio di Segonzano Mad.Aiuto;46.196167;11.258609;0
e_656;Gaggio/Gresta Bivio;46.207793;11.286814;0
e_657;Valcava. Bivio;46.217869;11.305171;0
e_658;Sover. Bar Vittoria;46.221405;11.314759;0
e_660;Sover. Loc. Mezauno;46.231132;11.318871;0
e_661;Piscine;46.239915;11.324715;0
e_662;Piscine. Loc. Grava;46.246753;11.332531;0
e_664;Pradel;46.260329;11.355415;0
e_665;Loc. Ronco;46.260434;11.384831;0
e_666;Loc. Melae;46.263129;11.397785;0
e_667;Stramentizzo. Bivio;46.26641;11.406553;0
e_669;Pradel;46.262399;11.355414;0
e_670;Scancio di Segonzano-Snack Bar;46.191608;11.258888;0
e_671;Lases. Distributore Esso;46.150439;11.222691;0
e_672;Lases. Pesa;46.14374;11.218679;0
e_673;Pergine V. V.Le Venezia;46.061249;11.23703;0
e_675;Pergine-Via Baratieri;46.063948;11.242774;0
e_676;Pergine V. Distr. Tamoil;46.065171;11.247426;0
e_677;Zivignago;46.067277;11.252917;0
e_678;Zivignago Cons.S.Orsola;46.070154;11.257157;0
e_679;Canezza. Maso Sleifer;46.076277;11.269734;0
e_682;Canezza;46.076975;11.274488;0
e_683;Canezza. Difr. Al Sole;46.08015;11.275942;0
e_684;Canezza. Maso Dràzeri;46.084558;11.277665;0
e_685;Viarago. Bivio;46.086387;11.277782;0
e_686;Mala. Loc.Agnoletti;46.088687;11.279789;0
e_687;Mala;46.090561;11.281509;0
e_688;S.Orsola. Loc.Mantovani;46.095744;11.289212;0
e_689;Stefani;46.098591;11.294201;0
e_690;S.Orsola. Loc.Bertoldi;46.102574;11.298238;0
e_691;S. Orsola;46.107694;11.301876;0
e_693;S.Orsola. Loc.Donadi;46.111675;11.306192;0
e_694;Bagni Terme di S.Orsola;46.113765;11.307884;0
e_695;S.Orsola. Loc. Doss Martin;46.114671;11.307595;0
e_696;Marcheli-Bivio Borti E Cont;46.117555;11.310062;0
e_697;Fontanari. Maso Marcheli;46.119435;11.313233;0
e_698;Fontanari;46.12117;11.316451;0
e_699;Palù Del F. Redebus;46.130239;11.34091;0
e_700;Palu'del F. Loc. Sigismondi;46.129806;11.34449;0
e_701;Palu' Del F. Htl Lagorai;46.129513;11.348871;0
e_702;Palu' Del Fersina;46.129732;11.352863;0
e_703;S. Orsola;46.107832;11.302001;0
e_708;Moena. Htl Campagnola;46.374005;11.665002;0
e_709;Alpe Lusia;46.367806;11.68605;0
e_710;Fango;46.368797;11.728391;0
e_711;Fango. Alb. Negritella;46.374788;11.751959;0
e_712;P.So S.Pellegrino. S.Cost.;46.378746;11.784385;0
e_713;Passo S.Pellegrino;46.378141;11.789624;0
e_714;P.So S.Pellegrino. Chiesetta;46.378324;11.793361;0
e_715;P.S.Pellegrino-Fun;46.379111;11.802043;0
e_716;P.So S.Pellegrino. Biviofreda;46.378811;11.813499;0
e_717;Zingari;46.376211;11.820585;0
e_718;Falcade Alto;46.355345;11.858403;0
e_719;Falcade. Chiesa;46.354317;11.86169;0
e_720;Falcade. Via Serafini;46.355063;11.866753;0
e_721;Falcade;46.358375;11.87286;0
e_722;Trento. Off.Conotter;46.075975;11.101119;0
e_723;Trento. Via Brescia;46.070742;11.113498;0
e_724;Montevideo;46.08037;11.098519;0
e_725;Cadine;46.088572;11.064983;0
e_726;Terlago. Bivio;46.091545;11.055123;0
e_727;Vigolo Baselga. Paese;46.081449;11.044962;0
e_728;Vigolo Baselga. Pallonc.Rosso;46.077626;11.032471;0
e_729;Vezzano. Piazza;46.078435;11.000154;0
e_731;Vezzano. Bivio V.Cavedine;46.071568;10.994702;0
e_733;Padergnone. Loc.Barbazan;46.060257;10.990201;0
e_734;Padergnone;46.062089;10.98885;0
e_735;Padergnone. Case Enel;46.059535;10.984616;0
e_736;Due Laghi-Hotel Miralaghi;46.058851;10.979179;0
e_737;Castel Toblino;46.056347;10.965435;0
e_739;Sarche. Maso Caffaro;46.04581;10.945322;0
e_740;Sarche. Bar Miravalle;46.044952;10.943916;0
e_741;Comano Terme;46.041193;10.881908;0
e_742;Ponte Arche Autostazione;46.035587;10.873615;0
e_743;Ponte Arche-Bel Sit;46.036219;10.864706;0
e_744;Ponte Ragoli. Sp34 Dir. Ragoli;46.050483;10.785335;0
e_745;Saone;46.042568;10.767067;0
e_746;"Zuclo ""Eurospin""";46.040576;10.749698;0
e_748;Ponte Ragoli. Ss237 Dir. Saone;46.049763;10.785623;0
e_749;Ragoli-Pez;46.051078;10.781304;0
e_750;Ragoli;46.050948;10.776267;0
e_751;Preore;46.046153;10.758108;0
e_752;Preore-Loc.Signor;46.04462;10.752411;0
e_754;Zuclo Bivio-Segheria Tonello;46.038712;10.744444;0
e_755;Bolbeno-Bivio;46.033969;10.735272;0
e_756;Tione. Bar Arnò;46.034863;10.732479;0
e_757;Tione. Autostazione;46.033131;10.726113;0
e_758;Tione-Via Circonvallaz.;46.040221;10.727471;0
e_759;Verdesina Bivio;46.056996;10.716267;0
e_760;Villa Rendena;46.062248;10.712321;0
e_761;Iavrè;46.068035;10.711736;0
e_762;Iavrè-Artigianato;46.070886;10.714294;0
e_763;Darè;46.075922;10.717566;0
e_764;Vigo Rendena;46.078732;10.718955;0
e_765;Vigo Rendena-Biv.Val S.Val.;46.082036;10.722141;0
e_766;Pelugo;46.087077;10.722712;0
e_767;Pelugo-Artigianato;46.087761;10.725074;0
e_768;Borzago;46.098856;10.734735;0
e_769;Spiazzo Rendena;46.103132;10.73769;0
e_770;Mortaso;46.106645;10.739858;0
e_771;Spiazzo Rend.-Concess.Cozzio;46.110256;10.747425;0
e_772;Strembo-Bivio Bocenago;46.118282;10.752804;0
e_773;Strembo;46.120329;10.751976;0
e_774;Caderzone;46.128702;10.756513;0
e_775;Caderzone-Off. Alfa Romeo;46.131331;10.764028;0
e_776;Giustino;46.146116;10.768268;0
e_777;Giustino-Hotell Royal;46.152048;10.76649;0
e_778;Pinzolo;46.157163;10.765985;0
e_779;Pinzolo-Funivie;46.16344;10.765456;0
e_780;Carisolo;46.169319;10.764146;0
e_781;Carisolo-Pinemonte Basso;46.187676;10.772542;0
e_782;S.Antonio di M.-Camping Faè;46.185863;10.779171;0
e_783;S.Antonio di M.-Biv.V.Nambr.;46.188184;10.777522;0
e_784;S.Antonio di M. Punto Info Pab;46.19011;10.786137;0
e_785;S.Antonio di Mavignola;46.191315;10.789131;0
e_786;S.Antonio di M.-Rio Fornas;46.193845;10.795952;0
e_787;S.Antonio di M.-Rio V.Rastrel;46.195038;10.795641;0
e_788;S.Antonio di M.-Palù;46.197237;10.797152;0
e_789;S.Antonio di M.-Mumble Fratè;46.200598;10.804009;0
e_790;M.Campiglio. Loc.Fontanella;46.208855;10.820243;0
e_791;M.Campiglio. Htl Lorenzetti;46.214136;10.822362;0
e_792;M.Campiglio. Htl Betulla;46.220871;10.822454;0
e_793;M.Campiglio. Pietra Gr.;46.224519;10.825377;0
e_794;M.Campiglio. Laghetto;46.226018;10.827865;0
e_795;M.Campiglio. Des Alpes;46.230343;10.827882;0
e_796;M.Campiglio. Pradalago;46.23403;10.826075;0
e_797;M.Campiglio. Htl Dahu;46.234408;10.823826;0
e_798;M.Campiglio. Brenta Alta;46.231941;10.826142;0
e_799;M.Campiglio. Biv. V.Nambino;46.235465;10.826424;0
e_800;Funivia Grostè;46.236312;10.835359;0
e_801;Campo Carlo Magno;46.242978;10.840028;0
e_803;Campo Carlo Magno;46.243224;10.840249;0
e_804;Funivia Grostè;46.236409;10.83546;0
e_807;M.Campiglio. Loc.Fontanella;46.208587;10.819858;0
e_808;S.Antonio di M.-Mumble Fratè;46.200491;10.803661;0
e_809;S.Antonio di Mavignola;46.191345;10.788899;0
e_811;S.Antonio di M. Punto Info Pab;46.190029;10.78559;0
e_812;S.Antonio di M.-Biv.V.Nambr.;46.188255;10.778146;0
e_813;S.Antonio di M.-Camping Faè;46.185658;10.778451;0
e_814;Carisolo;46.169098;10.763888;0
e_815;Pinzolo-Funivie;46.163722;10.76527;0
e_816;Giustino-Hotel Royal;46.153492;10.766251;0
e_817;Strembo-Bivio Bocenago;46.118148;10.752735;0
e_818;Spiazzo Rend.-Conc.Cozzio;46.110693;10.747685;0
e_819;Mortaso;46.106523;10.739582;0
e_820;Spiazzo Rendena;46.102587;10.736819;0
e_821;Borzago;46.098484;10.734349;0
e_822;Pelugo-Artigianato;46.088019;10.725276;0
e_823;Vigo Rendena-Biv.Val S.Val.;46.082367;10.722319;0
e_824;Vigo Rendena;46.0789;10.719151;0
e_825;Darè;46.075878;10.717462;0
e_826;Iavrè;46.06884;10.711463;0
e_827;Verdesina Bivio;46.056765;10.716636;0
e_829;Tione-Via Circonvallaz.;46.040013;10.727516;0
e_830;Terlago;46.097757;11.044737;0
e_831;Covelo. Bivio;46.098388;11.022714;0
e_832;Covelo. Via Pooli;46.096643;11.018071;0
e_833;Covelo;46.09829;11.019002;0
e_834;Maso Ariol;46.106105;11.026539;0
e_835;M. Terlago. Bivio;46.108224;11.035937;0
e_836;Monte Terlago. Piazza;46.109656;11.037891;0
e_837;M. Terlago. Vallene;46.108947;11.042847;0
e_838;M. Terlago. Htl 2 Laghi;46.112079;11.046116;0
e_839;Cadine;46.088856;11.06451;0
e_841;Trento. Maso Pedrotti;46.07556;11.09822;0
e_842;Trento. Loc. S.Antonio;46.069885;11.100436;0
e_843;Sardagna-Maso Scala;46.069871;11.097745;0
e_844;Sardagna;46.064849;11.097287;0
e_845;Sardagna-Tornante Sp 85;46.071419;11.08698;0
e_846;Candriai;46.065418;11.083405;0
e_847;Candriai. Erica;46.063071;11.082257;0
e_848;Centro Degasperi;46.05963;11.077753;0
e_849;Vaneze-Bivio Prà Della Fava;46.056969;11.076345;0
e_850;Bolbeno-Bivio;46.034111;10.735531;0
e_851;Zuclo Bivio-Segh. Tonello;46.038509;10.744192;0
e_852;Zuclo Morace Antichità R;46.04191;10.753683;0
e_853;Preore-Loc. Signor;46.04491;10.752912;0
e_854;Ragoli;46.050929;10.77637;0
e_855;Ragoli-Pez;46.050939;10.780059;0
e_856;Zuclo Morace Antichità;46.041983;10.753582;0
e_857;Saone;46.042536;10.766226;0
e_858;Ponte Ragoli. Ss237 Dir.Sarche;46.050263;10.786767;0
e_859;Ponte Arche-Bel Sit;46.036139;10.864626;0
e_861;Comano Terme;46.041141;10.882863;0
e_863;Padergnone;46.061989;10.989462;0
e_865;Vigolo Baselga. Ss45;46.080844;11.043568;0
e_868;Tione. Bar Arnò;46.034256;10.733255;0
e_869;Sarche. Cassa Rurale;46.046415;10.952064;0
e_870;Sarche. Centro Comm.;46.046439;10.952246;0
e_871;Vaneze;46.051918;11.071935;0
e_872;Vaneze-Sp.85;46.051411;11.069388;0
e_873;Vaneze-Norge;46.049242;11.066657;0
e_874;Vaneze-Baita Montesel;46.045839;11.065181;0
e_875;Vaneze-Ex Snack Bar;46.044388;11.060835;0
e_877;Viote;46.021403;11.04117;0
e_878;Vason;46.039194;11.058393;0
e_879;Vaneze-Baita Montesel;46.046329;11.065046;0
e_880;Candriai;46.065443;11.083975;0
e_881;Trento. Loc.Conotter;46.076761;11.099985;0
e_884;Zuclo;46.034159;10.747299;0
e_885;Bolbeno;46.032566;10.737549;0
e_887;Coltura;46.05827;10.793848;0
e_889;Preore Bivio Montagne;46.046118;10.756554;0
e_890;Montagne. Cort;46.050722;10.753625;0
e_891;Montagne. Larzana;46.058444;10.751302;0
e_892;Montagne. Binio;46.065608;10.755138;0
e_894;Zuclo;46.034086;10.747093;0
e_895;Pinzolo;46.157195;10.764398;0
e_896;Fraveggio. Bivio;46.078617;10.993862;0
e_897;Lon;46.084137;10.992651;0
e_898;Ciago;46.089243;11.004839;0
e_899;Margone. Bivio;46.067428;10.97374;0
e_900;Ranzo;46.06411;10.942538;0
e_901;Margone;46.068219;10.963861;0
e_903;Ciago. Sp. 18 Civ.1;46.089161;11.008005;0
e_905;Margone. Bivio;46.06794;10.97381;0
e_906;Lon. Rist. Fior di Roccia;46.084858;10.991603;0
e_909;Borgo Valsugana-C.Intermodale;46.052462;11.463491;0
e_910;Borgo V. Ospedale;46.056442;11.464237;0
e_911;Borgo V. Valli;46.055485;11.469818;0
e_912;Castelnuovo-Malerba;46.053808;11.481141;0
e_913;Castelnuovo;46.052199;11.494275;0
e_914;Strigno. Staz. Fs;46.051476;11.514732;0
e_915;Agnedo-Incrocio;46.051002;11.525005;0
e_916;Agnedo;46.052518;11.528678;0
e_917;Agnedo-Via Per Ospedaletto;46.048289;11.531298;0
e_918;Agnedo-Via Per Ospedaletto 8;46.046838;11.542283;0
e_919;Ospedaletto;46.044853;11.550779;0
e_920;Ospedaletto. Staz. Fs;46.041592;11.548685;0
e_921;Ospedaletto Loc. Barricata;46.036357;11.561027;0
e_922;Ospedaletto-Via Pradenella;46.033872;11.573065;0
e_923;Tollo;46.028366;11.587733;0
e_924;Grigno;46.015039;11.635232;0
e_925;Grigno-Segheria;46.015221;11.636693;0
e_926;Palù di Grigno;46.007303;11.65486;0
e_927;Serafini;46.004041;11.6604;0
e_928;Belvederi di Grigno;46.001083;11.665282;0
e_929;Tezze. Via M.Vecchio 16;45.993793;11.670268;0
e_930;Tezze;45.991217;11.671729;0
e_931;Martincelli;45.977984;11.6808;0
e_932;Primolano. A. Giardino;45.965205;11.707056;0
e_933;Ospedaletto;46.044689;11.55096;0
e_934;Canezza. Bivio;46.076786;11.275859;0
e_935;Canezza. Loc. Molini;46.076819;11.28274;0
e_936;Canezza. Loc. Pinterhof;46.078875;11.28344;0
e_937;Frassilongo. Maso Pizzi;46.084011;11.290371;0
e_938;Frassilongo. Maso Molinari;46.084563;11.291105;0
e_939;Levico Terme Autostazione;46.010088;11.298988;0
e_940;Levico T. Via Avancini;46.008714;11.308624;0
e_941;Barco;46.004585;11.335615;0
e_942;Levico T. Via Rovigo;46.009119;11.308641;0
e_943;Regnana Biv.-Dopo A.Costalta;46.159985;11.300167;0
e_944;Regnana. Via Redebus 9;46.156252;11.308979;0
e_945;Regnana;46.154105;11.309898;0
e_946;Borgo V. Sp.40;46.051475;11.456462;0
e_947;Olle. Trattoria Alla Croce;46.041592;11.460244;0
e_948;Olle. Via Del Boaletto;46.040763;11.465104;0
e_949;Olle;46.04081;11.464159;0
e_950;Pergine V.-Via Rosmini 19;46.060946;11.232464;0
e_951;Costasavina;46.058111;11.213978;0
e_952;Fornaci di Roncogno;46.06407;11.224108;0
e_953;Roncogno;46.069355;11.207316;0
e_954;Maso Colpi. Bivio Via Tiglio;45.99767;11.318194;0
e_955;Maso Colpi. Bivio;45.995465;11.319321;0
e_956;S.Giuliana. Civ.41;45.993091;11.31189;0
e_957;S. Giuliana;45.991576;11.31512;0
e_958;S. Mauro;46.125272;11.223913;0
e_959;Valcava;46.206287;11.311965;0
e_960;Svaldi;46.17008;11.301638;0
e_961;Ponte Fersina;46.069817;11.223408;0
e_962;Pergine V. Viale Dante;46.065909;11.228113;0
e_963;Masetti. Strada Provinciale;46.052648;11.249263;0
e_965;Levico T. Alb.Miralago;46.014469;11.294589;0
e_966;Levico Terme Cimitero;46.008857;11.316259;0
e_967;Levico T. Sp.228;46.016488;11.330911;0
e_968;Campiello di Levico;46.019578;11.356675;0
e_969;Novaledo;46.022214;11.36607;0
e_970;Novaledo-Via Roati;46.027413;11.374062;0
e_971;Novaledo-Loc.Campregher;46.029342;11.382788;0
e_972;Marter-Loc.Angeli;46.030566;11.388358;0
e_973;Marter. Autoespresso;46.034105;11.394313;0
e_974;Roncegno. Via Ciocca;46.044669;11.406874;0
e_975;Roncegno Terme;46.049672;11.41117;0
e_976;Roncegno. Centro Polisportivo;46.049009;11.421463;0
e_977;Borgo V. Staz. Fs;46.051443;11.45441;0
e_978;Scurelle;46.06506;11.50667;0
e_979;Scurelle-Via 15 Agosto;46.062962;11.514488;0
e_980;Villa;46.057747;11.51977;0
e_981;Strigno-Bivio Ivano Fracena;46.06156;11.523759;0
e_983;Tomaselli;46.068814;11.528254;0
e_984;Tomaselli-Bivio Latini;46.071156;11.536714;0
e_985;Bieno-Via Bettega;46.075322;11.540811;0
e_986;Bieno-Via Lusumina;46.084132;11.550564;0
e_987;Bieno;46.08027;11.55383;0
e_988;Bieno-Via Roma;46.081289;11.558986;0
e_989;Pradellano;46.079568;11.577668;0
e_990;Pradellano-Al Lago;46.076088;11.588451;0
e_991;Pieve Tesino-Passo Forcella;46.070958;11.592243;0
e_992;Pieve Tesino. Case Itea;46.068563;11.605517;0
e_993;Cinte Tesino Bivio;46.066535;11.60762;0
e_994;Cinte Tesino-Stab.Bailo;46.063237;11.609766;0
e_996;Cinte Tesino;46.057647;11.613701;0
e_998;Pieve Tesino;46.068075;11.60993;0
e_999;Castello T.-Loc. Molini;46.070759;11.622031;0
e_1000;Castello T. Distributore;46.068608;11.625938;0
e_1001;Castello T.-Via Baili;46.064293;11.628875;0
e_1002;Castello Tesino;46.064875;11.633289;0
e_1003;Pergine V. Bivio Susà;46.057686;11.237137;0
e_1004;Pergine. Via Al Lago;46.05493;11.235854;0
e_1005;S.Cristoforo Al Lago;46.038779;11.233499;0
e_1006;Valcanover;46.026717;11.22925;0
e_1007;Valcanover. Happy Days;46.016395;11.23423;0
e_1008;Calceranica. Via Donegani;46.006595;11.241043;0
e_1009;Calceranica Al Lago;46.003914;11.24329;0
e_1010;Caldonazzo. Via Marconi;45.994598;11.256976;0
e_1011;Caldonazzo;45.993374;11.260638;0
e_1012;Caldonazzo. Via Roma;45.994693;11.271258;0
e_1013;Caldonazzo. Sp. Civ.85/B;45.998137;11.279591;0
e_1014;Levico T. Rist. Brenta;46.006388;11.291846;0
e_1015;Levico T. Rist.Brenta;46.006545;11.291889;0
e_1016;Caldonazzo;45.993611;11.260692;0
e_1017;Caldonazzo. Via Marconi;45.995309;11.256566;0
e_1018;Calceranica Al Lago;46.006129;11.241411;0
e_1019;Valcanover;46.027391;11.229316;0
e_1020;S.Cristoforo Al Lago;46.038969;11.233974;0
e_1021;Pergine V. Via Al Lago;46.053383;11.235378;0
e_1022;S.Cristoforo. Bivio Darsena;46.03989;11.239806;0
e_1023;Ischia. Alle Terrazze;46.012668;11.261716;0
e_1024;Brenta Bivio;46.004685;11.274358;0
e_1025;Brenta Bivio;46.004647;11.274912;0
e_1026;Ischia. Alle Terrazze;46.014089;11.260418;0
e_1028;Pergine V. P.Gavazzi;46.061539;11.237582;0
e_1029;Roveda. Bivio;46.086444;11.293806;0
e_1030;Frassilongo;46.089504;11.297428;0
e_1031;Frassilongo. Maso Doss Hecchi;46.092489;11.302717;0
e_1032;Frassilongo. Maso Puech;46.094065;11.304203;0
e_1033;Fierozzo. Loc. Gaigheri;46.096615;11.311679;0
e_1034;S.Francesco;46.100364;11.310537;0
e_1035;S. Felice Fierozzo;46.11116;11.318511;0
e_1037;Pergine V. Via Regensburger;46.064433;11.242024;0
e_1038;Pergine V. Regensb/Bellini;46.067888;11.239686;0
e_1039;Casalino. Stadio Ghiaccio;46.072184;11.235638;0
e_1040;Casalino;46.073687;11.230353;0
e_1041;Vigalzano;46.076932;11.228469;0
e_1042;Vigalzano. Via Del Sgualdi;46.07979;11.226829;0
e_1043;Canzolino. Via Pianezze;46.081872;11.222565;0
e_1044;Canzolino. Scuole;46.083822;11.219082;0
e_1046;Madrano. Albergo;46.085561;11.21496;0
e_1048;S.Martino di Castrozza;46.262155;11.80428;0
e_1049;S.Martino di C. Htl Cristallo;46.258682;11.802416;0
e_1050;Impianti Tognola;46.254707;11.800059;0
e_1051;Valmesta;46.226903;11.808954;0
e_1052;Siror. Nolesca;46.189812;11.825374;0
e_1053;Siror;46.187091;11.830574;0
e_1054;Tressane;46.179404;11.832395;0
e_1055;Fiera di P. Via Roma 2;46.177619;11.831448;0
e_1056;Fiera di Primiero;46.174314;11.828596;0
e_1057;Transacqua. Viale Piave 129;46.171332;11.824349;0
e_1058;Sorive;46.160057;11.819873;0
e_1059;Mezzano. Salgetti;46.156245;11.814588;0
e_1060;Mezzano;46.154594;11.805969;0
e_1061;Imer. Via Nazionale 1;46.15203;11.800775;0
e_1062;Imer;46.150665;11.794425;0
e_1063;Masi di Imer;46.145287;11.785762;0
e_1064;S.Silvestro;46.131493;11.768948;0
e_1065;Pontet;46.106843;11.774053;0
e_1066;Port;46.0924;11.761685;0
e_1067;Val Rosna;46.083783;11.764424;0
e_1069;Ponte Oltra;46.060537;11.7632;0
e_1070;Fontane di Lamon;46.036419;11.761568;0
e_1071;Ponte Serra;46.029635;11.762561;0
e_1072;Fonzaso. Pedesalto;46.021119;11.781456;0
e_1073;Fonzaso;46.016527;11.802215;0
e_1074;Arten;46.008261;11.831183;0
e_1075;S.Lucia;46.003162;11.840778;0
e_1076;Feltre. Gel. La Zuecca;46.019147;11.893482;0
e_1078;Feltre. Ospedale;46.021857;11.908003;0
e_1079;Feltre. Staz. Fs;46.012752;11.910845;0
e_1080;Feltre-Staz. Fs;46.012495;11.910299;0
e_1081;S.Lucia;46.003278;11.840809;0
e_1082;Arten;46.008711;11.831529;0
e_1083;Ponte Oltra;46.060444;11.76255;0
e_1085;Masi di Imer;46.14537;11.786076;0
e_1087;Imer;46.150564;11.79451;0
e_1088;Mezzano;46.154453;11.806208;0
e_1089;Mezzano. Salgetti;46.156401;11.815192;0
e_1090;Siror;46.186858;11.83037;0
e_1091;Impianti Tognola;46.254567;11.800636;0
e_1092;S.Martino di C. Htl Cristallo;46.258587;11.802593;0
e_1093;Canal S. Bovo;46.154986;11.733008;0
e_1094;Canal S.Bovo. Somprà;46.159544;11.727574;0
e_1095;Pianazzi Bivio;46.162107;11.722753;0
e_1096;Ronco Fosse;46.153343;11.719639;0
e_1097;Ronco. Bivio Pugnai;46.149556;11.719945;0
e_1098;Ronco. Bivio Gasperoi;46.141881;11.717184;0
e_1099;Ronco Chiesa;46.141564;11.714631;0
e_1100;Povo-Mesiano;46.06612;11.142769;0
e_1102;Caldonazzo. Staz. Fs;45.997137;11.264699;0
e_1103;Levico Terme. Staz. Fs;46.00588;11.305006;0
e_1104;Grigno. Staz. Fs;46.015365;11.624991;0
e_1105;Tezze. Staz. Fs;45.991177;11.669377;0
e_1106;Primolano. Staz. Fs;45.965665;11.701309;0
e_1107;Susa';46.051112;11.223536;0
e_1108;Trento. 3 Nov.Centros.Chiara;46.062416;11.12371;0
e_1109;Trento. Viale Verona;46.056379;11.128442;0
e_1110;Trento. Verona/S.Bart.;46.05068;11.130485;0
e_1111;Trento.Viale Verona Big Center;46.045792;11.13097;0
e_1112;Trento. Man;46.036737;11.130335;0
e_1113;Mattarello. Loc.Ronchi;46.017609;11.132581;0
e_1114;Mattarello;46.005283;11.126499;0
e_1115;Acquaviva;45.990248;11.122845;0
e_1116;Acquaviva. Pizzeria;45.980441;11.116337;0
e_1117;Besenello.Nord;45.945968;11.106161;0
e_1118;Besenello;45.942137;11.109387;0
e_1119;Besenello. Sud;45.937109;11.110676;0
e_1120;Calliano;45.934198;11.095731;0
e_1121;Calliano. Grafiche Manfrini;45.928836;11.09317;0
e_1122;Castelpietra;45.922315;11.09193;0
e_1123;Volano;45.91792;11.063778;0
e_1124;S.Ilario;45.908274;11.04055;0
e_1125;Rovereto V.Le Trento;45.900157;11.041996;0
e_1126;Rovereto. Via Manzoni;45.892473;11.038424;0
e_1127;Rovereto. Staz. Fs;45.890446;11.033968;0
e_1128;Rovereto Difr.Rist.Cristina;45.881366;11.031858;0
e_1129;Lizzanella;45.875635;11.031725;0
e_1130;Lizzanella. Alla Staffa;45.872774;11.024337;0
e_1131;Centro Commerciale Millenium;45.868786;11.014431;0
e_1132;Mori. Staz. Fs;45.861909;11.000617;0
e_1133;Ravazzone di Mori;45.860092;10.991289;0
e_1134;Molina di Mori. Via Roma129;45.856819;10.989042;0
e_1135;Mori. Bar Centrale;45.851605;10.978779;0
e_1136;Mori. Bivio Sud;45.853582;10.967511;0
e_1137;Mori. Difr.Discoteca Fanum;45.855024;10.946424;0
e_1138;Loppio;45.855726;10.929793;0
e_1139;Passo S.Giovanni;45.873944;10.90634;0
e_1140;Nago;45.878475;10.890668;0
e_1141;Torbole;45.871052;10.875511;0
e_1142;Linfano. Bivio;45.875619;10.871472;0
e_1143;Riva Del G. Htl Brione;45.879954;10.856248;0
e_1144;Riva Del G. Htl Du Lac;45.883036;10.85264;0
e_1145;Riva Del G. Via D.Chiesa;45.888705;10.846074;0
e_1146;Riva Del G.Autostazione;45.892288;10.844891;0
e_1147;Riva Del G. Viale Trento;45.895382;10.85006;0
e_1149;Riva Del G. S.Nazzaro;45.899783;10.855659;0
e_1150;S.Tomaso-Direz. Arco;45.902286;10.86001;0
e_1151;Arco. S.Caterina Eurospar;45.904792;10.864219;0
e_1152;Arco. Bivio Sp 36 Grazie;45.906485;10.866326;0
e_1153;Arco. Via S.Caterina;45.912253;10.87521;0
e_1154;Arco. Autostazione;45.916112;10.883;0
e_1155;Arco. Piazza Italia;45.919566;10.891331;0
e_1156;Caneve;45.916734;10.892202;0
e_1157;Bolognano. Bivio;45.910902;10.900308;0
e_1158;Bolognano;45.912063;10.901985;0
e_1159;Bolognano. Via Asilo;45.914057;10.902195;0
e_1160;Massone. Case Itea;45.921813;10.899107;0
e_1161;Massone;45.924014;10.898305;0
e_1162;S.Martino di Arco;45.924459;10.894773;0
e_1163;Arco. Svizzera;45.92146;10.891615;0
e_1165;Arco. S.Caterina Eurospar;45.904662;10.863889;0
e_1166;S.Tomaso-Direz. Riva;45.902907;10.861113;0
e_1167;Riva Del G. S.Nazzaro;45.899421;10.855183;0
e_1169;Riva Del G. Viale Trento;45.895389;10.850171;0
e_1170;Riva Del G. Viale Martiri;45.888256;10.84434;0
e_1171;Nago;45.878302;10.890541;0
e_1172;Loppio;45.85549;10.930106;0
e_1173;Mori. Bar Centrale;45.851608;10.978987;0
e_1174;Molina di Mori;45.855097;10.985452;0
e_1175;Ravazzone di Mori;45.858717;10.990648;0
e_1176;Mori. Staz. Fs;45.861821;11.000485;0
e_1177;Lizzanella. Bar Verona;45.872694;11.024271;0
e_1178;Lizzanella;45.876161;11.032029;0
e_1179;Rovereto. Rist.Cristina;45.88139;11.032065;0
e_1180;Rovereto. Staz. Fs;45.890243;11.034028;0
e_1181;Rovereto. V.Le Trento;45.900353;11.042121;0
e_1182;S. Ilario;45.908367;11.040782;0
e_1183;Volano;45.91775;11.063575;0
e_1184;Calliano;45.934013;11.096;0
e_1185;Besenello;45.942592;11.108639;0
e_1186;Besenello-Ferm. Nord;45.946016;11.106021;0
e_1187;Mattarello;46.005251;11.126634;0
e_1188;Trento. Man;46.037836;11.130483;0
e_1189;Trento. Ponte Cavaleggeri;46.059353;11.126294;0
e_1190;Trento. Via Rosmini;46.068218;11.118792;0
e_1191;Tonadico. Lisiera;46.181186;11.841116;0
e_1192;Tonadico. Centr.Castelpietra;46.184633;11.84544;0
e_1193;Bivio Val Canali;46.189616;11.861085;0
e_1194;Baita Del Vecio;46.185476;11.873967;0
e_1195;Passo Cereda;46.192989;11.905216;0
e_1196;Mis;46.20714;11.927146;0
e_1197;Mis di Mezzo;46.205716;11.928989;0
e_1198;Mis di Sotto;46.203519;11.930091;0
e_1199;Sagron;46.195005;11.94335;0
e_1200;Bellamonte. Albergo Zaluna;46.314592;11.647132;0
e_1201;Bellamonte;46.312914;11.662979;0
e_1202;Bellamonte. Htl Torretta;46.311061;11.674493;0
e_1203;Lago Forte Buso;46.306912;11.701279;0
e_1204;Paneveggio;46.306448;11.738906;0
e_1205;Paneveggio Centro Forestale;46.309544;11.748089;0
e_1206;Bivio Malga Juribello;46.300122;11.76351;0
e_1207;Malga Rolle;46.295819;11.776537;0
e_1208;Passo Rolle;46.296308;11.787131;0
e_1209;Passo Rolle. Segg. Segantini;46.297696;11.788903;0
e_1210;Passo Rolle. Malga Fosse;46.289458;11.798572;0
e_1211;S.Martino di C. Htl S.Martino;46.266382;11.802406;0
e_1212;S.Martino di C.-Im.Col Verde;46.26492;11.80421;0
e_1213;S.Martino di C. Htl Belvedere;46.264317;11.801826;0
e_1218;Paneveggio;46.306572;11.738977;0
e_1219;Passo Rolle. Segg.Segantini;46.297926;11.789057;0
e_1221;Lausen;46.150391;11.734723;0
e_1224;Caoria. Ex Bar Cauriol;46.19486;11.680888;0
e_1225;Caoria. Ponte Valsorda;46.197166;11.678888;0
e_1226;Caoria;46.198014;11.675727;0
e_1227;Lausen;46.149482;11.734704;0
e_1229;Bivio Prade;46.151489;11.741636;0
e_1230;Berni;46.156639;11.745887;0
e_1231;Prade;46.157317;11.740532;0
e_1232;Cicona;46.162909;11.744178;0
e_1233;Zortea;46.16272;11.750153;0
e_1234;Zortea. Loc. Mureri;46.164875;11.75745;0
e_1235;Barbine;46.15784;11.754326;0
e_1236;Passo Gobbera. F.Mazuca;46.150303;11.751114;0
e_1237;Passo Gobbera;46.148013;11.756866;0
e_1238;Passo Gobbera;46.147634;11.75765;0
e_1239;Canal S. Bovo;46.154706;11.733033;0
e_1240;Caoria. Ponte Valsorda;46.197184;11.678526;0
e_1242;Cavalese. Htl Coronelle;46.294817;11.454257;0
e_1243;Daiano. Parco Giochi;46.300108;11.450117;0
e_1244;Daiano;46.30088;11.447866;0
e_1245;Varena. Pizz. La Cantinetta;46.302823;11.454017;0
e_1246;Varena. Alb. Alpino;46.303569;11.456154;0
e_1247;Varena;46.305516;11.458112;0
e_1248;Trento. Via Valsugana;46.069121;11.136316;0
e_1249;Cirè;46.077707;11.205955;0
e_1250;Roveda. Maso Puech Pote;46.074385;11.287903;0
e_1251;Roveda. Maso Sroveri;46.069345;11.292389;0
e_1252;Roveda;46.068024;11.300338;0
e_1253;Roveda. Maso Tolleri;46.069282;11.299098;0
e_1254;Roveda. Maso Martinotti;46.071816;11.304074;0
e_1255;Roveda. Maso Kairo;46.071545;11.298765;0
e_1256;Kamauz. Maso Frunt;46.073004;11.301541;0
e_1257;Kamauz;46.07472;11.30216;0
e_1258;Canezza Rist. Al Sole;46.080111;11.275677;0
e_1259;Borgo Vals. Case Itea;46.058764;11.469258;0
e_1260;Telve;46.070438;11.47796;0
e_1261;Telve-Panorama;46.070381;11.483094;0
e_1262;Telve-Via S.Giustina;46.072705;11.484437;0
e_1264;Telve-Salti;46.073964;11.480754;0
e_1265;Ponte S.Giovanni;46.075055;11.474235;0
e_1266;Telve di Sopra;46.072008;11.472209;0
e_1267;Campestrini;46.07769;11.456855;0
e_1268;Torcegno. Segheria;46.074772;11.451061;0
e_1269;Torcegno;46.07304;11.450415;0
e_1270;Ronchi Valsugana;46.072601;11.43855;0
e_1271;Ronchi-Loc. Marchi;46.066814;11.43258;0
e_1272;Stauda;46.063776;11.429668;0
e_1273;Montebello;46.06121;11.425909;0
e_1274;Maso Roneri;46.059243;11.420818;0
e_1275;Rincheri;46.056604;11.416637;0
e_1277;Cinte Tesino Bivio;46.067455;11.607534;0
e_1457;Ora-Auer;46.348174;11.297318;0
e_1458;Maso Del Gobbo;46.033816;10.947741;0
e_1459;Pietramurata;46.017091;10.94204;0
e_1460;Isoletta;46.009174;10.935765;0
e_1461;Marocche-Pescicoltura;46.002235;10.926658;0
e_1462;Marocche;45.998564;10.925293;0
e_1463;Gaggiolo;45.993529;10.926559;0
e_1464;Centrale Fies;45.986449;10.92688;0
e_1465;Dro. Al Lago;45.982596;10.925057;0
e_1466;Dro Itea;45.962453;10.915976;0
e_1467;Dro;45.961474;10.910724;0
e_1468;Dro. Carabinieri;45.958516;10.906521;0
e_1469;Ceniga;45.951387;10.900849;0
e_1470;Ceniga. Bivio Sud;45.946609;10.902952;0
e_1471;Arco Moletta;45.931024;10.896184;0
e_1472;Roncegno. Chiesa;46.049713;11.40668;0
e_1474;S.Martino di Arco;45.924767;10.894147;0
e_1475;Daiano. Via Arca I;46.300321;11.445205;0
e_1476;Daiano. Via Arca Civ.20;46.298114;11.444155;0
e_1477;Carano;46.292418;11.437232;0
e_1479;Lago di Tesero;46.281742;11.515787;0
e_1480;Lago. Mobilif. De Pal;46.283987;11.521967;0
e_1481;Tesero. Bivio;46.285508;11.523792;0
e_1482;Daino;46.023308;10.943757;0
e_1483;Baselga di Pinè Monum.;46.130952;11.246443;0
e_1484;Miola;46.126783;11.246519;0
e_1485;Miola. St. Ghiaccio;46.125305;11.252779;0
e_1486;Faida-Rauta;46.112841;11.253839;0
e_1487;Faida;46.10969;11.251612;0
e_1492;Canzolino;46.083701;11.221502;0
e_1493;Canzolino. Htl Miralago;46.082966;11.230838;0
e_1494;Canzolino. Bivio Buss;46.084556;11.230762;0
e_1495;Riposo;46.084494;11.236934;0
e_1496;Montagnaga;46.098614;11.236067;0
e_1497;Valt;46.106818;11.236564;0
e_1498;Ferrari Htl Scoiattolo;46.111814;11.234194;0
e_1499;Ferrari;46.121679;11.239941;0
e_1501;Miola-Bivio Ferrari/Miola;46.124924;11.243141;0
e_1502;Mazzanigo;46.103798;11.188916;0
e_1503;S.Agnese;46.106122;11.183914;0
e_1507;Campo Lomaso;46.024031;10.865605;0
e_1508;Campo Lomaso Ii;46.021897;10.866742;0
e_1509;Vigo Lomaso;46.013209;10.869077;0
e_1510;Dasindo;46.011734;10.860499;0
e_1511;Stumiaga;46.007006;10.849004;0
e_1512;Fiavè-Caseificio;46.001943;10.846002;0
e_1513;Fiave';46.004318;10.842155;0
e_1514;Fiavè-Bar Aurora;46.001174;10.840935;0
e_1515;Torbiera;45.992445;10.838006;0
e_1516;Fiavè Pineta;45.988123;10.833075;0
e_1517;Ballino;45.965502;10.811511;0
e_1518;Lago di Tenno;45.93539;10.811878;0
e_1519;Ville Del Monte;45.930258;10.82241;0
e_1520;Ville Del Monte I;45.927398;10.825672;0
e_1521;Tenno;45.921138;10.831296;0
e_1522;Tenno. Rist. Alla Croce;45.91808;10.832839;0
e_1523;Cologna. Alb.Panorama;45.915367;10.847092;0
e_1524;Cologna;45.914858;10.842364;0
e_1525;Cologna. Belvedere;45.91396;10.841414;0
e_1526;Gavazzo;45.912491;10.840953;0
e_1527;Varone Cascata;45.911896;10.837379;0
e_1528;Gardolo. Zona Ind.Le;46.105317;11.100604;0
e_1530;Trento. Ospedale S.Chiara;46.058154;11.132916;0
e_1531;Trento. Osp. S.Chiara;46.058155;11.131195;0
e_1532;Trento. Ospedale S.Camillo;46.065483;11.131823;0
e_1534;Trento. Piazza Venezia;46.067676;11.126898;0
e_1535;Trento. Via Barbacovi;46.064482;11.129754;0
e_1536;Trento. Via M.Baldo;46.057537;11.117434;0
e_1538;Varone. Alberello;45.907213;10.840332;0
e_1539;Varone. Via Ballino 14;45.904368;10.842055;0
e_1540;Varone. Sc.Alberghiera;45.901914;10.844089;0
e_1541;Albola;45.897665;10.844128;0
e_1542;Riva D/Garda V.Le Dei Tigli 21;45.892365;10.842947;0
e_1544;Varone. Sc.Alberghiera;45.901569;10.844309;0
e_1545;Varone. Cascata;45.911836;10.837196;0
e_1546;Cologna. Alb.Panorama;45.915415;10.847129;0
e_1547;Ballino;45.965775;10.811607;0
e_1548;Torbiera;45.992713;10.838521;0
e_1549;Fiavè-Bar Aurora;46.001312;10.841012;0
e_1550;Fiave';46.004254;10.842192;0
e_1551;Fiavè-Caseificio;46.002205;10.845754;0
e_1552;Stumiaga;46.007379;10.849191;0
e_1553;Dasindo;46.011618;10.860456;0
e_1554;Vigo Lomaso;46.013241;10.869088;0
e_1555;Campo Lomaso Ii;46.021556;10.86682;0
e_1556;Campo Lomaso;46.023679;10.865721;0
e_1558;Cares;46.03289;10.863774;0
e_1559;Comighello;46.030953;10.851465;0
e_1560;Sesto Bivio;46.031422;10.846945;0
e_1562;Villa di Bleggio;46.029306;10.841951;0
e_1563;Santa Croce;46.02447;10.838767;0
e_1564;Madice;46.023864;10.832001;0
e_1565;Marcè Bivio;46.01926;10.823812;0
e_1566;Cavrasto;46.017078;10.819853;0
e_1567;Balbido;46.01486;10.811036;0
e_1568;Rango;46.018186;10.81183;0
e_1569;Cavaione;46.022569;10.819802;0
e_1570;Marazzone;46.026892;10.820733;0
e_1571;Larido;46.02869;10.823712;0
e_1572;Bivedo;46.028737;10.826648;0
e_1573;Tione. Hotel Milano;46.029135;10.72374;0
e_1574;Polin;46.026823;10.720089;0
e_1575;Breguzzo-Loc. Petò;46.018712;10.711182;0
e_1576;Breguzzo-Corè;46.014462;10.707679;0
e_1577;Breguzzo;46.009293;10.699434;0
e_1578;Breguzzo-Hotel Carlone;46.006213;10.697764;0
e_1579;Bondo;46.000241;10.692875;0
e_1580;Pra' di Bondo;45.996291;10.690679;0
e_1581;Prà di Bondo-Falegnameria;45.990777;10.68558;0
e_1582;Roncone;45.983561;10.670694;0
e_1583;Fontanedo;45.979181;10.666826;0
e_1584;Lardaro;45.96938;10.660892;0
e_1585;Forti di Lardaro;45.962752;10.658038;0
e_1586;Strada;45.944283;10.642771;0
e_1587;Pieve di Bono;45.938969;10.638638;0
e_1588;Agrone;45.954528;10.650078;0
e_1589;Pieve di Bono. Tratt.Borel;45.935768;10.639059;0
e_1592;Cologna di P.Bono;45.931354;10.637449;0
e_1593;Cimego. Centrale Enel;45.924617;10.632708;0
e_1594;Ponte Cimego;45.915355;10.621384;0
e_1595;Cimego;45.911925;10.6144;0
e_1596;Cimego Quartinago;45.91062;10.611835;0
e_1597;Cimego-Bar Porte;45.904467;10.608408;0
e_1598;Condino. Alb.Condino;45.891405;10.60156;0
e_1599;Condino;45.88902;10.59961;0
e_1600;Condino. Case Itea;45.884991;10.596494;0
e_1601;Condino. Cartiere;45.880387;10.592588;0
e_1602;Condino. Carpenteria;45.874622;10.588411;0
e_1603;Ca' Rossa. Dfr.Bar Ristoro;45.854843;10.566903;0
e_1604;Storo-Hotel Al Melograno;45.850409;10.57488;0
e_1605;Storo;45.848807;10.578087;0
e_1606;Storo-Al Melograno;45.85017;10.575221;0
e_1608;Ca' Rossa;45.852439;10.565999;0
e_1609;Darzo-Stork Club;45.849191;10.55967;0
e_1610;Darzo;45.841239;10.549703;0
e_1611;Darzo-Zona Ind.Le;45.834352;10.542858;0
e_1612;Lodrone;45.829191;10.535457;0
e_1613;Ponte Caffaro Bivio;45.825167;10.530744;0
e_1614;Ponte Caffaro-Mobilif.;45.820922;10.539249;0
e_1615;Ponte Caffaro-Pescicoltura;45.81788;10.543906;0
e_1616;Baitoni-Via Lago;45.810326;10.54338;0
e_1617;Baitoni;45.808721;10.539589;0
e_1618;Tione. Rist.Pellegrini;46.029264;10.724132;0
e_1619;Polin;46.026805;10.720062;0
e_1620;Breguzzo;46.009867;10.7002;0
e_1621;Breguzzo-Hotel Carlone;46.006441;10.697512;0
e_1622;Bondo;46.0;10.692831;0
e_1623;Prà di Bondo;45.996468;10.690918;0
e_1624;Roncone;45.984558;10.67208;0
e_1625;Fontanedo;45.978897;10.666772;0
e_1626;Lardaro;45.969769;10.661089;0
e_1627;Forti di Lardaro;45.963003;10.658391;0
e_1628;Agrone;45.954732;10.650272;0
e_1629;Strada;45.944012;10.642639;0
e_1630;Pieve di Bono-Tratt.Borel;45.935705;10.63907;0
e_1631;Cologna di P.Bono;45.931271;10.637534;0
e_1632;Condino-Alb.Condino;45.891387;10.601534;0
e_1633;Condino Albergo Corona.;45.888993;10.599609;0
e_1634;Condino. Case Itea;45.885118;10.596701;0
e_1635;Condino. Cartiere;45.880369;10.592621;0
e_1636;Storo. Hotel Al Melograno;45.850361;10.575059;0
e_1637;Storo;45.848887;10.57816;0
e_1638;Darzo;45.84229;10.550493;0
e_1639;Darzo-Zona Ind.Le;45.834079;10.542729;0
e_1640;Lodrone;45.829322;10.5357;0
e_1641;Ponte Caffaro-Mobilif.;45.821141;10.538883;0
e_1643;Poia;46.028667;10.880069;0
e_1644;Godenzo;46.028751;10.883204;0
e_1645;Comano;46.034769;10.89102;0
e_1646;Godenzo;46.028886;10.883222;0
e_1647;Poia;46.028479;10.880065;0
e_1648;Lundo;46.012779;10.884052;0
e_1649;Villa Banale;46.046349;10.887434;0
e_1650;Premione-Via di Pestelan;46.047642;10.88049;0
e_1651;Premione;46.048272;10.874199;0
e_1652;Stenico-Scuola;46.04986;10.856621;0
e_1653;Stenico;46.05197;10.853877;0
e_1654;Stenico-Case Nuove;46.052156;10.861016;0
e_1655;Stenico-Dologno;46.053473;10.873473;0
e_1656;Dos Doa;46.054273;10.89755;0
e_1658;Sclemo-Via Dei Caputel;46.053619;10.879383;0
e_1659;Sclemo;46.055963;10.884039;0
e_1660;Tavodo;46.066323;10.892201;0
e_1661;Tavodo-S.Provinciale;46.064889;10.892126;0
e_1662;Dorsino;46.073365;10.896856;0
e_1663;S.Lorenzo Dorsino;46.076503;10.907302;0
e_1664;S.Lorenzo-Chiesa;46.076671;10.909366;0
e_1665;Lago Nembia;46.096096;10.932583;0
e_1666;Lago Nembia-Casa Enel;46.107358;10.943024;0
e_1669;Molveno. Centro;46.14242;10.963756;0
e_1670;Molveno;46.140431;10.963724;0
e_1671;Molveno. Htl Du Lac;46.141236;10.965604;0
e_1672;Molveno. Grand Htl;46.134067;10.969556;0
e_1673;Lago Nembia;46.095952;10.933321;0
e_1674;S.Lorenzo Dorsino;46.076385;10.907679;0
e_1675;Tavodo-Incr.S.P.;46.06476;10.892031;0
e_1676;Sclemo;46.055895;10.884204;0
e_1677;Sclemo-Via Dei Caputel;46.053762;10.879426;0
e_1678;Seo;46.057109;10.872921;0
e_1679;Dos Doa;46.054075;10.897268;0
e_1680;Stenico-Dologno;46.05348;10.873595;0
e_1681;Stenico-Case Nuove;46.052286;10.860167;0
e_1682;Stenico;46.051868;10.853803;0
e_1683;Premione;46.048262;10.874062;0
e_1684;Villa Banale;46.046301;10.887084;0
e_1688;Castel Condino;45.91632;10.602714;0
e_1689;Bersone;45.944015;10.633505;0
e_1690;Praso;45.949535;10.637414;0
e_1691;Daone;45.947372;10.621183;0
e_1692;Castelnuovo. Zanzibar;46.060202;11.490308;0
e_1693;Carzano;46.069841;11.493612;0
e_1695;Scurelle-Via Murazzo;46.069128;11.498022;0
e_1696;Strigno-Loc.Colle;46.067463;11.516069;0
e_1697;Spera;46.070412;11.508852;0
e_1698;Strigno-Loc. Colle;46.067494;11.515868;0
e_1699;Samone;46.081222;11.52194;0
e_1700;Riva Del G. Bivio Val Ledro;45.894755;10.842614;0
e_1701;Pregasina Bivio;45.864433;10.812753;0
e_1702;Pregasina;45.851215;10.824946;0
e_1703;Biacesa;45.865049;10.805388;0
e_1704;Prè;45.866332;10.788168;0
e_1705;Barcesino;45.870892;10.781511;0
e_1706;Molina di Ledro;45.871761;10.772215;0
e_1707;Molina di Ledro-Lago;45.873682;10.766712;0
